{
    "dados3": [
        {
            "id_cliente": "760",
            "nome": "Eco'logis Experts",
            "morada": "Za Chateaugay 19 avenue Ambroise Croizat 03410 Domérat",
            "telefone": "04 70 06 37 98",
            "telefone2": null,
            "latitude": "46.36734339999999600000",
            "longitude": "2.57361570000000000000",
            "departamento": "3",
            "pertence_nfi": "Não",
            "id_utilizador": "4",
            "id_log": "0"
        },
        {
            "id_cliente": "761",
            "nome": "MENUISERIE VERCHERE",
            "morada": "lieu-dit Bourg 03130 Le Bouchaud",
            "telefone": "04 70 55 31 02",
            "telefone2": null,
            "latitude": "46.30576830000000000000",
            "longitude": "3.89828150000000000000",
            "departamento": "3",
            "pertence_nfi": "Não",
            "id_utilizador": "4",
            "id_log": "0"
        },
        {
            "id_cliente": "762",
            "nome": "MONSIEUR PHILIPPE GUILLAUMIN",
            "morada": "23 boulevard Gambetta 03320 Lurcy Lévis",
            "telefone": "04 70 67 91 67",
            "telefone2": null,
            "latitude": "46.73162720000000000000",
            "longitude": "2.93950700000000000000",
            "departamento": "3",
            "pertence_nfi": "Não",
            "id_utilizador": "4",
            "id_log": "0"
        },
        {
            "id_cliente": "763",
            "nome": "Thermadome CP",
            "morada": "rue Ancizes 03300 Creuzier le Neuf",
            "telefone": "04 70 58 18 50",
            "telefone2": null,
            "latitude": "46.18167500000000000000",
            "longitude": "3.45194800000000000000",
            "departamento": "3",
            "pertence_nfi": "Não",
            "id_utilizador": "4",
            "id_log": "0"
        },
        {
            "id_cliente": "764",
            "nome": "Arnault Entreprise",
            "morada": "29 Bis rue Jean Marie Malbrunot 03120 Lapalisse",
            "telefone": "06 18 44 88 12",
            "telefone2": null,
            "latitude": "46.25134219999999600000",
            "longitude": "3.62258930000000000000",
            "departamento": "3",
            "pertence_nfi": "Não",
            "id_utilizador": "4",
            "id_log": "0"
        },
        {
            "id_cliente": "765",
            "nome": "Habitat Plus - Solabaie",
            "morada": "17 avenue Vichy 03300 Cusset",
            "telefone": "04 70 97 75 66",
            "telefone2": null,
            "latitude": "46.13300290000000000000",
            "longitude": "3.45120870000000000000",
            "departamento": "3",
            "pertence_nfi": "Não",
            "id_utilizador": "4",
            "id_log": "0"
        },
        {
            "id_cliente": "766",
            "nome": "La Boutique Du Menuisier",
            "morada": "Za De Chateaugay rue Chat Huant 03410 Domérat",
            "telefone": "04 70 03 07 33",
            "telefone2": null,
            "latitude": "46.36098889999999500000",
            "longitude": "2.53300199999999980000",
            "departamento": "3",
            "pertence_nfi": "Não",
            "id_utilizador": "4",
            "id_log": "0"
        },
        {
            "id_cliente": "767",
            "nome": "Menuiserie P'tit Pierre",
            "morada": "45 rue Jean Baptiste Bru 03300 Cusset",
            "telefone": "04 70 58 28 75",
            "telefone2": null,
            "latitude": "46.13708700000000000000",
            "longitude": "3.45613900000000000000",
            "departamento": "3",
            "pertence_nfi": "Não",
            "id_utilizador": "4",
            "id_log": "0"
        },
        {
            "id_cliente": "768",
            "nome": "ENTREPRISE GRANGE",
            "morada": "42 rue Navarre 03700 Bellerive sur Allier",
            "telefone": "04 70 32 42 58",
            "telefone2": null,
            "latitude": "46.11113400000000000000",
            "longitude": "3.41514889999999970000",
            "departamento": "3",
            "pertence_nfi": "Não",
            "id_utilizador": "4",
            "id_log": "0"
        },
        {
            "id_cliente": "769",
            "nome": "Bartois S A R L",
            "morada": "zone industrielle Coquet 03260 Saint Germain des Fossés",
            "telefone": "04 70 58 16 44",
            "telefone2": null,
            "latitude": "46.21324999999999500000",
            "longitude": "3.43976200000000000000",
            "departamento": "3",
            "pertence_nfi": "Não",
            "id_utilizador": "4",
            "id_log": "0"
        },
        {
            "id_cliente": "770",
            "nome": "Fournier Noel Menuiserie",
            "morada": "zac Les Thibaulds rue Silo 03240 Tronget",
            "telefone": "04 70 47 31 58",
            "telefone2": null,
            "latitude": "46.42310160000000000000",
            "longitude": "3.07581900000000000000",
            "departamento": "3",
            "pertence_nfi": "Não",
            "id_utilizador": "4",
            "id_log": "0"
        },
        {
            "id_cliente": "771",
            "nome": "Gondras Menuiserie Moulins SAS",
            "morada": "38 rue Epoux Contoux 03400 Yzeure",
            "telefone": "04 70 46 76 80",
            "telefone2": null,
            "latitude": "46.54481209999999400000",
            "longitude": "3.34547970000000000000",
            "departamento": "3",
            "pertence_nfi": "Não",
            "id_utilizador": "4",
            "id_log": "0"
        },
        {
            "id_cliente": "772",
            "nome": "Miroiterie de la Loue",
            "morada": "lieu-dit Loue 03410 Saint Victor",
            "telefone": "04 70 29 77 69",
            "telefone2": null,
            "latitude": "46.38964720000000000000",
            "longitude": "2.59542360000000000000",
            "departamento": "3",
            "pertence_nfi": "Não",
            "id_utilizador": "4",
            "id_log": "0"
        },
        {
            "id_cliente": "773",
            "nome": "B2M Menuiserie",
            "morada": "18 route Roudiers 03100 Lavault Sainte Anne",
            "telefone": "06 28 08 14 40",
            "telefone2": null,
            "latitude": "46.31070930000000000000",
            "longitude": "2.60671770000000000000",
            "departamento": "3",
            "pertence_nfi": "Não",
            "id_utilizador": "4",
            "id_log": "0"
        },
        {
            "id_cliente": "774",
            "nome": "Auriche Menuiserie SARL",
            "morada": "1 Les Brandes Sud, 03600 Malicorne",
            "telefone": "04 70 64 67 19",
            "telefone2": null,
            "latitude": "46.30496000000000000000",
            "longitude": "2.73138569999999970000",
            "departamento": "3",
            "pertence_nfi": "Não",
            "id_utilizador": "4",
            "id_log": "0"
        },
        {
            "id_cliente": "775",
            "nome": "Mbm Menuiseries",
            "morada": "9 rue Foulet 03000 Moulins",
            "telefone": "04 70 49 30 11",
            "telefone2": null,
            "latitude": "46.56769440000000000000",
            "longitude": "3.34181370000000000000",
            "departamento": "3",
            "pertence_nfi": "Não",
            "id_utilizador": "4",
            "id_log": "0"
        },
        {
            "id_cliente": "776",
            "nome": "Sas Gondras Menuiseries",
            "morada": "55 route Paris 03300 Cusset",
            "telefone": "04 70 31 23 58",
            "telefone2": null,
            "latitude": "46.14316249999999500000",
            "longitude": "3.45685860000000000000",
            "departamento": "3",
            "pertence_nfi": "Não",
            "id_utilizador": "4",
            "id_log": "0"
        },
        {
            "id_cliente": "777",
            "nome": "ART ET FENETRES APROBAT",
            "morada": "24 rue Romainville 03300 Cusset",
            "telefone": null,
            "telefone2": "04 70 32 43 99",
            "latitude": "46.14212240000000000000",
            "longitude": "3.43180460000000000000",
            "departamento": "3",
            "pertence_nfi": "Não",
            "id_utilizador": "4",
            "id_log": "0"
        },
        {
            "id_cliente": "778",
            "nome": "Menuiserie Roy et Fils",
            "morada": "3 chemin Groitiers 03000 Avermes",
            "telefone": "04 70 44 03 81",
            "telefone2": null,
            "latitude": "46.59491639999999500000",
            "longitude": "3.30592660000000000000",
            "departamento": "3",
            "pertence_nfi": "Não",
            "id_utilizador": "4",
            "id_log": "0"
        },
        {
            "id_cliente": "779",
            "nome": "DVVE",
            "morada": "Fougerat lieu-dit Clavettes 03260 Billy",
            "telefone": "06 25 11 72 10",
            "telefone2": null,
            "latitude": "46.22305100000000000000",
            "longitude": "3.43316699999999960000",
            "departamento": "3",
            "pertence_nfi": "Não",
            "id_utilizador": "4",
            "id_log": "0"
        },
        {
            "id_cliente": "780",
            "nome": "Prost Christophe",
            "morada": "10 place Marcel Guillaumin 03200 Le Vernet",
            "telefone": "04 70 98 06 92",
            "telefone2": null,
            "latitude": "46.10829640000000000000",
            "longitude": "3.46302420000000000000",
            "departamento": "3",
            "pertence_nfi": "Não",
            "id_utilizador": "4",
            "id_log": "0"
        },
        {
            "id_cliente": "781",
            "nome": "Allier Stores Et Fermetures EURL",
            "morada": "12 route St Pourcain 03110 Charmeil",
            "telefone": null,
            "telefone2": "04 70 32 83 77",
            "latitude": "46.15667540000000000000",
            "longitude": "3.39234339999999970000",
            "departamento": "3",
            "pertence_nfi": "Não",
            "id_utilizador": "4",
            "id_log": "0"
        },
        {
            "id_cliente": "782",
            "nome": "Les Ateliers Desnoyer",
            "morada": "9 chemin Champcourt 03300 Cusset",
            "telefone": "04 70 98 37 24",
            "telefone2": null,
            "latitude": "46.14119189999999500000",
            "longitude": "3.45170500000000000000",
            "departamento": "3",
            "pertence_nfi": "Não",
            "id_utilizador": "4",
            "id_log": "0"
        },
        {
            "id_cliente": "783",
            "nome": "Fermetures Project",
            "morada": "4 avenue Gare 03800 Gannat",
            "telefone": "06 25 72 38 30",
            "telefone2": null,
            "latitude": "46.09865830000000000000",
            "longitude": "3.20281700000000050000",
            "departamento": "3",
            "pertence_nfi": "Não",
            "id_utilizador": "4",
            "id_log": "0"
        },
        {
            "id_cliente": "784",
            "nome": "Saeh\/\/Sapph",
            "morada": "15 rue Font Neuve 03140 Chantelle",
            "telefone": "04 70 56 66 20",
            "telefone2": null,
            "latitude": "46.23646510000000000000",
            "longitude": "3.15015400000000000000",
            "departamento": "3",
            "pertence_nfi": "Não",
            "id_utilizador": "4",
            "id_log": "0"
        },
        {
            "id_cliente": "785",
            "nome": "SEH Henrion",
            "morada": "lieu-dit Regneron 03150 Varennes sur Allier",
            "telefone": "04 70 45 26 75",
            "telefone2": null,
            "latitude": "46.31901600000000000000",
            "longitude": "3.41828500000000000000",
            "departamento": "3",
            "pertence_nfi": "Não",
            "id_utilizador": "4",
            "id_log": "0"
        },
        {
            "id_cliente": "786",
            "nome": "Tryba Delta R 03 Fermetures et Protectio",
            "morada": "34 boulevard Gambetta 03200 Vichy",
            "telefone": null,
            "telefone2": "04 70 31 51 50",
            "latitude": "46.12809999999999600000",
            "longitude": "3.42745229999999970000",
            "departamento": "3",
            "pertence_nfi": "Não",
            "id_utilizador": "4",
            "id_log": "0"
        },
        {
            "id_cliente": "787",
            "nome": "Améliorations Fermetures Petitrenaud",
            "morada": "35 rue Epoux Contoux 03400 Yzeure",
            "telefone": "04 70 20 51 99",
            "telefone2": null,
            "latitude": "46.54967910000000000000",
            "longitude": "3.34715180000000020000",
            "departamento": "3",
            "pertence_nfi": "Não",
            "id_utilizador": "4",
            "id_log": "0"
        },
        {
            "id_cliente": "788",
            "nome": "Bati Pro",
            "morada": "27 avenue Edmond Michelet 03000 Neuvy",
            "telefone": "04 70 20 50 81",
            "telefone2": null,
            "latitude": "46.55786850000000000000",
            "longitude": "3.30773169999999970000",
            "departamento": "3",
            "pertence_nfi": "Não",
            "id_utilizador": "4",
            "id_log": "0"
        },
        {
            "id_cliente": "789",
            "nome": "Boiselec Cheron Adrien",
            "morada": "bât Ye 135 lieu-dit Montazeauds 03240 Tronget",
            "telefone": "06 31 48 93 70",
            "telefone2": null,
            "latitude": "46.41664499999999500000",
            "longitude": "3.05589500000000000000",
            "departamento": "3",
            "pertence_nfi": "Não",
            "id_utilizador": "4",
            "id_log": "0"
        },
        {
            "id_cliente": "790",
            "nome": "Serrurerie Nouvelle SARL",
            "morada": "8 rue Champ Fromager 03400 Yzeure",
            "telefone": "04 70 44 51 68",
            "telefone2": null,
            "latitude": "46.55627860000000000000",
            "longitude": "3.33691220000000000000",
            "departamento": "3",
            "pertence_nfi": "Não",
            "id_utilizador": "4",
            "id_log": "0"
        },
        {
            "id_cliente": "791",
            "nome": "Lorenove Habiconfort Concessionnaire",
            "morada": "Zac Du Pont Des Nautes 1 rue Commerce 03410 Saint Victor",
            "telefone": null,
            "telefone2": "04 70 05 32 59",
            "latitude": "46.38303029999999400000",
            "longitude": "2.61666780000000000000",
            "departamento": "3",
            "pertence_nfi": "Não",
            "id_utilizador": "4",
            "id_log": "0"
        },
        {
            "id_cliente": "792",
            "nome": "RG Bâtiment",
            "morada": "1 rue Lavoisier 03300 Cusset",
            "telefone": "06 67 75 72 84",
            "telefone2": null,
            "latitude": "46.14038310000000000000",
            "longitude": "3.43726770000000000000",
            "departamento": "3",
            "pertence_nfi": "Não",
            "id_utilizador": "4",
            "id_log": "0"
        },
        {
            "id_cliente": "793",
            "nome": "A Auvergne Habitat Marché",
            "morada": "54 avenue Vichy 03300 Cusset",
            "telefone": null,
            "telefone2": "04 70 98 76 09",
            "latitude": "46.13433149999999500000",
            "longitude": "3.44723849999999970000",
            "departamento": "3",
            "pertence_nfi": "Não",
            "id_utilizador": "4",
            "id_log": "0"
        },
        {
            "id_cliente": "794",
            "nome": "BERNE MENUISERIE BERNE JEREMY",
            "morada": "10 Bis rue Boulaires 03300 Cusset",
            "telefone": "06 10 23 39 30",
            "telefone2": null,
            "latitude": "46.13974599999999500000",
            "longitude": "3.46049830000000000000",
            "departamento": "3",
            "pertence_nfi": "Não",
            "id_utilizador": "4",
            "id_log": "0"
        },
        {
            "id_cliente": "795",
            "nome": "Komilfo",
            "morada": "Les Sabottes 69 route Paris 03000 Avermes",
            "telefone": "04 70 44 03 81",
            "telefone2": null,
            "latitude": "46.59192930000000000000",
            "longitude": "3.31136500000000000000",
            "departamento": "3",
            "pertence_nfi": "Não",
            "id_utilizador": "4",
            "id_log": "0"
        },
        {
            "id_cliente": "796",
            "nome": "E-wood Concept",
            "morada": "8 rue St Pourcain 03500 Châtel de Neuvre",
            "telefone": "06 23 22 59 03",
            "telefone2": null,
            "latitude": "46.40561530000000000000",
            "longitude": "3.31198709999999960000",
            "departamento": "3",
            "pertence_nfi": "Não",
            "id_utilizador": "4",
            "id_log": "0"
        },
        {
            "id_cliente": "797",
            "nome": "Sedec",
            "morada": "lieu-dit Jalfrettes 03500 Saint Pourçain sur Sioule",
            "telefone": "04 70 45 43 24",
            "telefone2": null,
            "latitude": "46.31507900000000000000",
            "longitude": "3.30794300000000000000",
            "departamento": "3",
            "pertence_nfi": "Não",
            "id_utilizador": "4",
            "id_log": "0"
        },
        {
            "id_cliente": "798",
            "nome": "Vichy Fenêtres",
            "morada": "3 rue Ailes 03300 Creuzier le Vieux",
            "telefone": null,
            "telefone2": "04 70 97 70 09",
            "latitude": "46.15348290000000000000",
            "longitude": "3.41197720000000000000",
            "departamento": "3",
            "pertence_nfi": "Não",
            "id_utilizador": "4",
            "id_log": "0"
        },
        {
            "id_cliente": "799",
            "nome": "Place aux Agenceurs",
            "morada": "40 rue Gare 03270 Hauterive",
            "telefone": "04 70 58 59 01",
            "telefone2": null,
            "latitude": "46.08783959999999500000",
            "longitude": "3.44385199999999970000",
            "departamento": "3",
            "pertence_nfi": "Não",
            "id_utilizador": "4",
            "id_log": "0"
        },
        {
            "id_cliente": "800",
            "nome": "Verreries du Centre Société Nouvelle des",
            "morada": "place Verrerie 03100 Montluçon",
            "telefone": null,
            "telefone2": "04 70 28 22 44",
            "latitude": "46.34860440000000000000",
            "longitude": "2.59909930000000000000",
            "departamento": "3",
            "pertence_nfi": "Não",
            "id_utilizador": "4",
            "id_log": "0"
        },
        {
            "id_cliente": "801",
            "nome": "Boulicot-Brandao Menuiserie",
            "morada": "Hôtel d'Entreprise Les Brandes Sud, 03600 Malicorne",
            "telefone": null,
            "telefone2": "04 70 64 63 48",
            "latitude": "46.31004300000000000000",
            "longitude": "2.73321690000000000000",
            "departamento": "3",
            "pertence_nfi": "Não",
            "id_utilizador": "4",
            "id_log": "0"
        },
        {
            "id_cliente": "802",
            "nome": "TAC",
            "morada": "40 rue Gare 03270 Hauterive",
            "telefone": null,
            "telefone2": "04 70 58 59 01",
            "latitude": "46.08783959999999500000",
            "longitude": "3.44385199999999970000",
            "departamento": "3",
            "pertence_nfi": "Não",
            "id_utilizador": "4",
            "id_log": "0"
        },
        {
            "id_cliente": "803",
            "nome": "Menuiserie Nicolas et Sabatier",
            "morada": "108 avenue Albert Thomas 03100 Montluçon",
            "telefone": null,
            "telefone2": "04 70 28 80 85",
            "latitude": "46.35705770000000000000",
            "longitude": "2.58644049999999970000",
            "departamento": "3",
            "pertence_nfi": "Não",
            "id_utilizador": "4",
            "id_log": "0"
        },
        {
            "id_cliente": "804",
            "nome": "Artemis Métal",
            "morada": "24 lieu-dit Noire 03230 Beaulon",
            "telefone": "06 86 24 94 54",
            "telefone2": null,
            "latitude": "46.58753400000000000000",
            "longitude": "3.66942400000000000000",
            "departamento": "3",
            "pertence_nfi": "Não",
            "id_utilizador": "4",
            "id_log": "0"
        },
        {
            "id_cliente": "805",
            "nome": "Entreprise Bukowinski Sas",
            "morada": "bois Forêt 03600 Commentry",
            "telefone": "04 70 64 60 26",
            "telefone2": null,
            "latitude": "46.27657000000000000000",
            "longitude": "2.77248000000000000000",
            "departamento": "3",
            "pertence_nfi": "Não",
            "id_utilizador": "4",
            "id_log": "0"
        },
        {
            "id_cliente": "806",
            "nome": "L'expert fernêtre",
            "morada": "rue Parc de la Mothe 03400 Yzeure",
            "telefone": null,
            "telefone2": "04 70 43 24 46",
            "latitude": "46.54500810000000000000",
            "longitude": "3.34465580000000000000",
            "departamento": "3",
            "pertence_nfi": "Não",
            "id_utilizador": "4",
            "id_log": "0"
        },
        {
            "id_cliente": "807",
            "nome": "ALLIER HABITAT ECOLOGIQUE",
            "morada": "42 avenue Capucins 03800 Gannat",
            "telefone": "04 70 90 09 99",
            "telefone2": null,
            "latitude": "46.10845070000000000000",
            "longitude": "3.19835610000000000000",
            "departamento": "3",
            "pertence_nfi": "Não",
            "id_utilizador": "4",
            "id_log": "0"
        },
        {
            "id_cliente": "808",
            "nome": "Steiner Moreau",
            "morada": "10 rue Pasquis 03100 Montluçon",
            "telefone": "04 70 28 40 99",
            "telefone2": null,
            "latitude": "46.35814650000000000000",
            "longitude": "2.59220720000000000000",
            "departamento": "3",
            "pertence_nfi": "Não",
            "id_utilizador": "4",
            "id_log": "0"
        },
        {
            "id_cliente": "809",
            "nome": "Hervé Casimir",
            "morada": "25 rue Repos 03000 Moulins",
            "telefone": null,
            "telefone2": "06 84 66 78 46",
            "latitude": "46.57528689999999500000",
            "longitude": "3.33146279999999970000",
            "departamento": "3",
            "pertence_nfi": "Não",
            "id_utilizador": "4",
            "id_log": "0"
        },
        {
            "id_cliente": "810",
            "nome": "Menuiserie Fontaine",
            "morada": "20 route Donjon 03470 Saligny sur Roudon",
            "telefone": null,
            "telefone2": "06 08 36 91 21",
            "latitude": "46.46558309999999600000",
            "longitude": "3.74606950000000040000",
            "departamento": "3",
            "pertence_nfi": "Não",
            "id_utilizador": "4",
            "id_log": "0"
        },
        {
            "id_cliente": "811",
            "nome": "Ambiances & Bois Menuiserie",
            "morada": "6 rue Cheminots 03400 Yzeure",
            "telefone": null,
            "telefone2": "06 63 90 63 59",
            "latitude": "46.54911399999999600000",
            "longitude": "3.34942499999999970000",
            "departamento": "3",
            "pertence_nfi": "Não",
            "id_utilizador": "4",
            "id_log": "0"
        },
        {
            "id_cliente": "812",
            "nome": "ISOFRANCE Barrère Fermetures - Energies SARL",
            "morada": "71 rue Glacerie 03100 Montluçon",
            "telefone": null,
            "telefone2": "04 70 06 37 96",
            "latitude": "46.35229440000000000000",
            "longitude": "2.60582660000000000000",
            "departamento": "3",
            "pertence_nfi": "Não",
            "id_utilizador": "4",
            "id_log": "0"
        },
        {
            "id_cliente": "813",
            "nome": "Soares Agencement",
            "morada": "26 rue Epoux Contoux 03400 Yzeure",
            "telefone": "04 70 49 08 87",
            "telefone2": null,
            "latitude": "46.54886529999999600000",
            "longitude": "3.34664059999999970000",
            "departamento": "3",
            "pertence_nfi": "Não",
            "id_utilizador": "4",
            "id_log": "0"
        },
        {
            "id_cliente": "814",
            "nome": "Baptista Rénovation",
            "morada": "64 rue Aubéries du Renard 03100 Montluçon",
            "telefone": "04 70 03 94 54",
            "telefone2": null,
            "latitude": "46.33646210000000600000",
            "longitude": "2.59093260000000000000",
            "departamento": "3",
            "pertence_nfi": "Não",
            "id_utilizador": "4",
            "id_log": "0"
        },
        {
            "id_cliente": "815",
            "nome": "Sarl Didier BEAUDONNET Menuiserie-Pompes funèbres-Marbrerie",
            "morada": "Za À Proximité De La Rue Verte rue Lauriers 03330 Bellenaves",
            "telefone": "04 70 58 35 34",
            "telefone2": null,
            "latitude": "46.20171740000000000000",
            "longitude": "3.08335549999999970000",
            "departamento": "3",
            "pertence_nfi": "Não",
            "id_utilizador": "4",
            "id_log": "0"
        },
        {
            "id_cliente": "816",
            "nome": "Menuiserie Lallement",
            "morada": "bât Ac 190 20 lotissement Grands Prés 03190 Estivareilles",
            "telefone": null,
            "telefone2": "06 79 22 06 06",
            "latitude": "46.42308039999999600000",
            "longitude": "2.61044239999999970000",
            "departamento": "3",
            "pertence_nfi": "Não",
            "id_utilizador": "4",
            "id_log": "0"
        },
        {
            "id_cliente": "817",
            "nome": "Steiner MOREAU",
            "morada": "10 rue Pasquis 03100 Montluçon",
            "telefone": null,
            "telefone2": "04 70 28 40 99",
            "latitude": "46.35814650000000000000",
            "longitude": "2.59220720000000000000",
            "departamento": "3",
            "pertence_nfi": "Não",
            "id_utilizador": "4",
            "id_log": "0"
        },
        {
            "id_cliente": "818",
            "nome": "Menuiserie Sommeiller",
            "morada": "4 lieu-dit Suchelle 03390 Chappes",
            "telefone": "04 70 07 28 33",
            "telefone2": null,
            "latitude": "46.39627300000000000000",
            "longitude": "2.93529899999999970000",
            "departamento": "3",
            "pertence_nfi": "Não",
            "id_utilizador": "4",
            "id_log": "0"
        },
        {
            "id_cliente": "819",
            "nome": "Auvergne Espace Véranda",
            "morada": "33 route Montmarault 03500 Saint Pourçain sur Sioule",
            "telefone": "04 70 45 65 83",
            "telefone2": null,
            "latitude": "46.31063590000000000000",
            "longitude": "3.28513500000000000000",
            "departamento": "3",
            "pertence_nfi": "Não",
            "id_utilizador": "4",
            "id_log": "0"
        },
        {
            "id_cliente": "820",
            "nome": "Auvergne Baie Sas",
            "morada": "2 rue Cassons 03500 Bayet",
            "telefone": "04 70 45 81 30",
            "telefone2": null,
            "latitude": "46.24279900000000000000",
            "longitude": "3.28458600000000040000",
            "departamento": "3",
            "pertence_nfi": "Não",
            "id_utilizador": "4",
            "id_log": "0"
        },
        {
            "id_cliente": "821",
            "nome": "Philippe Menuiserie",
            "morada": "1 lieu-dit Lavas 03390 Murat",
            "telefone": "04 70 07 41 32",
            "telefone2": null,
            "latitude": "46.40402160000000000000",
            "longitude": "2.92702260000000000000",
            "departamento": "3",
            "pertence_nfi": "Não",
            "id_utilizador": "4",
            "id_log": "0"
        },
        {
            "id_cliente": "822",
            "nome": "Assistance Technique du Bâtiment ATB 03",
            "morada": "93 rue Jean Jaurès 03200 Vichy",
            "telefone": "04 70 97 89 47",
            "telefone2": null,
            "latitude": "46.13197410000000000000",
            "longitude": "3.42324920000000000000",
            "departamento": "3",
            "pertence_nfi": "Não",
            "id_utilizador": "4",
            "id_log": "0"
        },
        {
            "id_cliente": "823",
            "nome": "Cpb menuiserie",
            "morada": "1 place St Roch 03600 Malicorne",
            "telefone": null,
            "telefone2": "07 61 41 29 75",
            "latitude": "46.30303389999999600000",
            "longitude": "2.78181189999999970000",
            "departamento": "3",
            "pertence_nfi": "Não",
            "id_utilizador": "4",
            "id_log": "0"
        },
        {
            "id_cliente": "824",
            "nome": "C.M.V. ROSSIGNOL",
            "morada": "Z A de la Tour, 03200 Abrest",
            "telefone": "04 70 59 21 49",
            "telefone2": null,
            "latitude": "46.09556399999999600000",
            "longitude": "3.42620200000000040000",
            "departamento": "3",
            "pertence_nfi": "Não",
            "id_utilizador": "4",
            "id_log": "0"
        },
        {
            "id_cliente": "825",
            "nome": "Europe Centre France Fermetures SARL",
            "morada": "17 route Dornès 03460 Trévol",
            "telefone": null,
            "telefone2": "04 70 42 62 76",
            "latitude": "46.63030639999999500000",
            "longitude": "3.30810710000000000000",
            "departamento": "3",
            "pertence_nfi": "Não",
            "id_utilizador": "4",
            "id_log": "0"
        },
        {
            "id_cliente": "826",
            "nome": "Gabriel SAS",
            "morada": "27 rue Ampère 03300 Cusset",
            "telefone": "04 70 97 56 39",
            "telefone2": null,
            "latitude": "46.14018300000000000000",
            "longitude": "3.43966499999999980000",
            "departamento": "3",
            "pertence_nfi": "Não",
            "id_utilizador": "4",
            "id_log": "0"
        },
        {
            "id_cliente": "827",
            "nome": "BigMat Bécat Ets",
            "morada": "zone industrielle Carmone 03500 Saint Pourçain sur Sioule",
            "telefone": "04 70 45 30 91",
            "telefone2": null,
            "latitude": "46.30720400000000000000",
            "longitude": "3.28899699999999970000",
            "departamento": "3",
            "pertence_nfi": "Não",
            "id_utilizador": "4",
            "id_log": "0"
        },
        {
            "id_cliente": "828",
            "nome": "Thierry Mosnier",
            "morada": "16 rue Peupliers 03800 Charmes",
            "telefone": "06 13 94 99 35",
            "telefone2": null,
            "latitude": "46.07602800000000000000",
            "longitude": "3.24605890000000000000",
            "departamento": "3",
            "pertence_nfi": "Não",
            "id_utilizador": "4",
            "id_log": "0"
        },
        {
            "id_cliente": "829",
            "nome": "Caséo",
            "morada": "1 quai Rouget de Lisle 03100 Montluçon",
            "telefone": null,
            "telefone2": "04 70 05 28 56",
            "latitude": "46.34268420000000000000",
            "longitude": "2.60045090000000000000",
            "departamento": "3",
            "pertence_nfi": "Não",
            "id_utilizador": "4",
            "id_log": "0"
        },
        {
            "id_cliente": "830",
            "nome": "Baud Et Pougnier Menuiserie Agencement",
            "morada": "5 les Bats, 03110 Saint Rémy en Rollat",
            "telefone": null,
            "telefone2": "04 70 41 90 62",
            "latitude": "46.17578880000000000000",
            "longitude": "3.40063880000000000000",
            "departamento": "3",
            "pertence_nfi": "Não",
            "id_utilizador": "4",
            "id_log": "0"
        },
        {
            "id_cliente": "831",
            "nome": "Rapid'pose",
            "morada": "35 rue Paul Constans 03100 Montluçon",
            "telefone": null,
            "telefone2": "04 70 64 01 30",
            "latitude": "46.34273479999999500000",
            "longitude": "2.59127759999999970000",
            "departamento": "3",
            "pertence_nfi": "Não",
            "id_utilizador": "4",
            "id_log": "0"
        },
        {
            "id_cliente": "832",
            "nome": "Labussiere Menuiserie Et Cuisine",
            "morada": "60 Grande Rue, 03290 Diou",
            "telefone": null,
            "telefone2": "04 70 42 92 34",
            "latitude": "46.53424300000000000000",
            "longitude": "3.74539300000000040000",
            "departamento": "3",
            "pertence_nfi": "Não",
            "id_utilizador": "4",
            "id_log": "0"
        },
        {
            "id_cliente": "833",
            "nome": "Bardin Entretien Rénovation",
            "morada": "lieu-dit Moulin Beche 03300 Molles",
            "telefone": null,
            "telefone2": "04 70 41 88 84",
            "latitude": "46.13312820000000000000",
            "longitude": "3.54834880000000000000",
            "departamento": "3",
            "pertence_nfi": "Não",
            "id_utilizador": "4",
            "id_log": "0"
        },
        {
            "id_cliente": "834",
            "nome": "Menuiserie General Marc Kevin EURL",
            "morada": "lieu-dit Dignette 03220 Varennes sur Tèche",
            "telefone": null,
            "telefone2": "07 86 06 51 95",
            "latitude": "46.32281460000000000000",
            "longitude": "3.64893970000000000000",
            "departamento": "3",
            "pertence_nfi": "Não",
            "id_utilizador": "4",
            "id_log": "0"
        },
        {
            "id_cliente": "835",
            "nome": "Batiman TTMB 03 Adhérent",
            "morada": "Za Monzières rue Croix des Barres 03700 Bellerive sur Allier",
            "telefone": null,
            "telefone2": "04 70 32 46 63",
            "latitude": "46.11004980000000000000",
            "longitude": "3.38464330000000000000",
            "departamento": "3",
            "pertence_nfi": "Não",
            "id_utilizador": "4",
            "id_log": "0"
        },
        {
            "id_cliente": "836",
            "nome": "Confor'm Habitat SASU",
            "morada": "20 rue Camille Desmoulins 03100 Montluçon",
            "telefone": null,
            "telefone2": "04 70 03 74 88",
            "latitude": "46.35398350000000000000",
            "longitude": "2.59136260000000000000",
            "departamento": "3",
            "pertence_nfi": "Não",
            "id_utilizador": "4",
            "id_log": "0"
        },
        {
            "id_cliente": "837",
            "nome": "Big Mat Becat",
            "morada": "3 route Lycée Agricole 03000 Neuvy",
            "telefone": "04 70 44 33 35",
            "telefone2": null,
            "latitude": "46.55510320000000000000",
            "longitude": "3.29418609999999970000",
            "departamento": "3",
            "pertence_nfi": "Não",
            "id_utilizador": "4",
            "id_log": "0"
        },
        {
            "id_cliente": "838",
            "nome": "Aquila SAS",
            "morada": "impasse Rene Barrat 03190 Estivareilles",
            "telefone": null,
            "telefone2": "04 70 07 80 61",
            "latitude": "46.42501400000000000000",
            "longitude": "2.61816500000000030000",
            "departamento": "3",
            "pertence_nfi": "Não",
            "id_utilizador": "4",
            "id_log": "0"
        },
        {
            "id_cliente": "839",
            "nome": "KBF",
            "morada": "route Moulins 03460 Trévol",
            "telefone": "06 19 64 19 41",
            "telefone2": null,
            "latitude": "46.62308680000000000000",
            "longitude": "3.30236070000000000000",
            "departamento": "3",
            "pertence_nfi": "Não",
            "id_utilizador": "4",
            "id_log": "0"
        },
        {
            "id_cliente": "840",
            "nome": "Alumétal",
            "morada": "53 rue Repos 03000 Moulins",
            "telefone": null,
            "telefone2": "04 70 46 85 60",
            "latitude": "46.57639719999999500000",
            "longitude": "3.32961800000000000000",
            "departamento": "3",
            "pertence_nfi": "Não",
            "id_utilizador": "4",
            "id_log": "0"
        },
        {
            "id_cliente": "841",
            "nome": "Fougère Christophe",
            "morada": "6 impasse Saules 03270 Mariol",
            "telefone": "06 50 46 90 51",
            "telefone2": null,
            "latitude": "46.01856100000000000000",
            "longitude": "3.48961000000000000000",
            "departamento": "3",
            "pertence_nfi": "Não",
            "id_utilizador": "4",
            "id_log": "0"
        },
        {
            "id_cliente": "842",
            "nome": "Suat Seren",
            "morada": "Entree 2 47 R Voltaire, 03100 Montluçon",
            "telefone": "04 70 08 01 76",
            "telefone2": null,
            "latitude": "46.34738070000000000000",
            "longitude": "2.59187120000000000000",
            "departamento": "3",
            "pertence_nfi": "Não",
            "id_utilizador": "4",
            "id_log": "0"
        },
        {
            "id_cliente": "843",
            "nome": "SMC",
            "morada": "31 rue Maraîchers 03300 Cusset",
            "telefone": "04 70 98 75 20",
            "telefone2": null,
            "latitude": "46.14057040000000000000",
            "longitude": "3.44864599999999970000",
            "departamento": "3",
            "pertence_nfi": "Não",
            "id_utilizador": "4",
            "id_log": "0"
        },
        {
            "id_cliente": "844",
            "nome": "Caséo",
            "morada": "80 rue Peupliers 03300 Cusset",
            "telefone": null,
            "telefone2": "04 70 32 13 21",
            "latitude": "46.13625700000000000000",
            "longitude": "3.43191500000000000000",
            "departamento": "3",
            "pertence_nfi": "Não",
            "id_utilizador": "4",
            "id_log": "0"
        },
        {
            "id_cliente": "845",
            "nome": "Pierre Bassot",
            "morada": "7 rue Ecole 03410 Domérat",
            "telefone": null,
            "telefone2": "04 70 64 11 12",
            "latitude": "46.34530900000000000000",
            "longitude": "2.55332570000000000000",
            "departamento": "3",
            "pertence_nfi": "Não",
            "id_utilizador": "4",
            "id_log": "0"
        },
        {
            "id_cliente": "846",
            "nome": "C.E.C.A France",
            "morada": "lieu-dit Tuilerie 03230 Chevagnes",
            "telefone": null,
            "telefone2": "04 70 42 48 23",
            "latitude": "46.61034199999999600000",
            "longitude": "3.55135700000000000000",
            "departamento": "3",
            "pertence_nfi": "Não",
            "id_utilizador": "4",
            "id_log": "0"
        },
        {
            "id_cliente": "847",
            "nome": "MENUISERIE NOUVELLE D BOUCHERET",
            "morada": "36 avenue Thiers 03270 Saint Yorre",
            "telefone": "04 70 59 13 57",
            "telefone2": null,
            "latitude": "46.06195200000000000000",
            "longitude": "3.46639830000000000000",
            "departamento": "3",
            "pertence_nfi": "Não",
            "id_utilizador": "4",
            "id_log": "0"
        },
        {
            "id_cliente": "848",
            "nome": "Antoine Aresti",
            "morada": "Menuiserie 0 7 zone artisanale Rigollee 03000 Avermes",
            "telefone": null,
            "telefone2": "04 70 44 68 91",
            "latitude": "46.58575400000000000000",
            "longitude": "3.31324900000000000000",
            "departamento": "3",
            "pertence_nfi": "Não",
            "id_utilizador": "4",
            "id_log": "0"
        },
        {
            "id_cliente": "849",
            "nome": "Belval Creation",
            "morada": "9 rue Bas des Crots 03200 Abrest",
            "telefone": null,
            "telefone2": "04 63 88 39 62",
            "latitude": "46.10152869999999600000",
            "longitude": "3.44975350000000000000",
            "departamento": "3",
            "pertence_nfi": "Não",
            "id_utilizador": "4",
            "id_log": "0"
        },
        {
            "id_cliente": "850",
            "nome": "RG Bâtiment",
            "morada": "23 avenue Charles de Gaulle 03120 Lapalisse",
            "telefone": null,
            "telefone2": "04 70 31 72 91",
            "latitude": "46.24552360000000000000",
            "longitude": "3.63443960000000000000",
            "departamento": "3",
            "pertence_nfi": "Não",
            "id_utilizador": "4",
            "id_log": "0"
        },
        {
            "id_cliente": "851",
            "nome": "Pascal Taillardat",
            "morada": "lieu-dit Tafleur 03250 Le Mayet de Montagne",
            "telefone": null,
            "telefone2": "04 70 59 32 51",
            "latitude": "46.05633100000000000000",
            "longitude": "3.68640299999999940000",
            "departamento": "3",
            "pertence_nfi": "Não",
            "id_utilizador": "4",
            "id_log": "0"
        },
        {
            "id_cliente": "852",
            "nome": "Thonier Philippe Menuiserie",
            "morada": "2 rue Bourbon 03260 Billy",
            "telefone": "04 70 43 51 66",
            "telefone2": null,
            "latitude": "46.23420690000000000000",
            "longitude": "3.42829410000000000000",
            "departamento": "3",
            "pertence_nfi": "Não",
            "id_utilizador": "4",
            "id_log": "0"
        },
        {
            "id_cliente": "853",
            "nome": "Serge Malleret",
            "morada": "8 route Nationale 7 03150 Rongères",
            "telefone": null,
            "telefone2": "09 63 56 33 62",
            "latitude": "46.29313720000000000000",
            "longitude": "3.44358100000000000000",
            "departamento": "3",
            "pertence_nfi": "Não",
            "id_utilizador": "4",
            "id_log": "0"
        },
        {
            "id_cliente": "854",
            "nome": "Daumin Jean-marc",
            "morada": "lieu-dit Bourg 03320 Pouzy Mésangy",
            "telefone": "06 74 95 67 54",
            "telefone2": null,
            "latitude": "46.70702020000000000000",
            "longitude": "3.00485660000000000000",
            "departamento": "3",
            "pertence_nfi": "Não",
            "id_utilizador": "4",
            "id_log": "0"
        },
        {
            "id_cliente": "855",
            "nome": "Bat'inov",
            "morada": "55 Bis rue Barge 03300 Cusset",
            "telefone": "04 70 41 22 07",
            "telefone2": null,
            "latitude": "46.13140530000000000000",
            "longitude": "3.46267710000000000000",
            "departamento": "3",
            "pertence_nfi": "Não",
            "id_utilizador": "4",
            "id_log": "0"
        },
        {
            "id_cliente": "856",
            "nome": "Agencement et Menuiserie Valery Jean-Luc",
            "morada": "21 rue Cher 03100 Montluçon",
            "telefone": "04 70 02 64 40",
            "telefone2": null,
            "latitude": "46.34435269999999500000",
            "longitude": "2.59434860000000000000",
            "departamento": "3",
            "pertence_nfi": "Não",
            "id_utilizador": "4",
            "id_log": "0"
        },
        {
            "id_cliente": "857",
            "nome": "Giglioli",
            "morada": "57 rue Préférés 03300 Cusset",
            "telefone": "06 08 86 39 14",
            "telefone2": null,
            "latitude": "46.13141470000000000000",
            "longitude": "3.46545519999999960000",
            "departamento": "3",
            "pertence_nfi": "Não",
            "id_utilizador": "4",
            "id_log": "0"
        },
        {
            "id_cliente": "858",
            "nome": "Big Mat Bécat",
            "morada": "lieu-dit Varennes 03430 Cosne d'Allier",
            "telefone": "04 70 07 51 99",
            "telefone2": null,
            "latitude": "46.48548900000000000000",
            "longitude": "2.83062200000000000000",
            "departamento": "3",
            "pertence_nfi": "Não",
            "id_utilizador": "4",
            "id_log": "0"
        },
        {
            "id_cliente": "859",
            "nome": "BigMat Bécat Ets",
            "morada": "70 rue Jean Alexis Bayet 03600 Commentry",
            "telefone": "04 70 08 00 08",
            "telefone2": null,
            "latitude": "46.30020450000000000000",
            "longitude": "2.74295920000000000000",
            "departamento": "3",
            "pertence_nfi": "Não",
            "id_utilizador": "4",
            "id_log": "0"
        },
        {
            "id_cliente": "860",
            "nome": "Laurent Ballanger",
            "morada": "6 rue Joseph Clément 03100 Montluçon",
            "telefone": null,
            "telefone2": "07 60 89 52 84",
            "latitude": "46.33707090000000000000",
            "longitude": "2.58970870000000000000",
            "departamento": "3",
            "pertence_nfi": "Não",
            "id_utilizador": "4",
            "id_log": "0"
        },
        {
            "id_cliente": "861",
            "nome": "Sarl Mcm",
            "morada": "lieu-dit Pontais 03210 Souvigny",
            "telefone": "07 61 24 62 48",
            "telefone2": null,
            "latitude": "46.53393889999999500000",
            "longitude": "3.19199399999999980000",
            "departamento": "3",
            "pertence_nfi": "Não",
            "id_utilizador": "4",
            "id_log": "0"
        },
        {
            "id_cliente": "862",
            "nome": "AKENA Armonial Concess.",
            "morada": "19 rue Bardin 03200 Vichy",
            "telefone": "04 70 96 29 60",
            "telefone2": null,
            "latitude": "46.13152600000000000000",
            "longitude": "3.42574400000000000000",
            "departamento": "3",
            "pertence_nfi": "Não",
            "id_utilizador": "4",
            "id_log": "0"
        },
        {
            "id_cliente": "863",
            "nome": "Adam SARL",
            "morada": "63 boulevard Courtais 03100 Montluçon",
            "telefone": null,
            "telefone2": "04 70 05 91 97",
            "latitude": "46.33831610000000000000",
            "longitude": "2.60590430000000000000",
            "departamento": "3",
            "pertence_nfi": "Não",
            "id_utilizador": "4",
            "id_log": "0"
        },
        {
            "id_cliente": "864",
            "nome": "Menuiserie Saintpourcinoise",
            "morada": "2 rue Louis Tellier 03500 Saint Pourçain sur Sioule",
            "telefone": null,
            "telefone2": "04 70 45 17 01",
            "latitude": "46.30005900000000000000",
            "longitude": "3.29918599999999970000",
            "departamento": "3",
            "pertence_nfi": "Não",
            "id_utilizador": "4",
            "id_log": "0"
        },
        {
            "id_cliente": "865",
            "nome": "Lopes Antonio",
            "morada": "la Pierre Dure, 03170 Chamblet",
            "telefone": "04 70 07 80 88",
            "telefone2": null,
            "latitude": "46.33417499999999500000",
            "longitude": "2.70208500000000000000",
            "departamento": "3",
            "pertence_nfi": "Não",
            "id_utilizador": "4",
            "id_log": "0"
        },
        {
            "id_cliente": "866",
            "nome": "SFB Carreda SARL",
            "morada": "9 rue Lieut Robert Castin 03100 Montluçon",
            "telefone": "06 82 48 22 69",
            "telefone2": null,
            "latitude": "46.36853000000000000000",
            "longitude": "2.59109600000000000000",
            "departamento": "3",
            "pertence_nfi": "Não",
            "id_utilizador": "4",
            "id_log": "0"
        },
        {
            "id_cliente": "867",
            "nome": "Menuiserie Potier Bois-Pvc",
            "morada": "Le Theil, 03470 Pierrefitte sur Loire",
            "telefone": null,
            "telefone2": "04 70 42 93 89",
            "latitude": "46.51785000000000000000",
            "longitude": "3.79235830000000000000",
            "departamento": "3",
            "pertence_nfi": "Não",
            "id_utilizador": "4",
            "id_log": "0"
        },
        {
            "id_cliente": "868",
            "nome": "Menuiserie Pène",
            "morada": "lieu-dit Feuillouse 03150 Varennes sur Allier",
            "telefone": null,
            "telefone2": "04 70 20 86 34",
            "latitude": "46.28302220000000000000",
            "longitude": "3.43541270000000000000",
            "departamento": "3",
            "pertence_nfi": "Não",
            "id_utilizador": "4",
            "id_log": "0"
        },
        {
            "id_cliente": "869",
            "nome": "Menuiseries Blanquet",
            "morada": "14 Chambouly, 03600 Malicorne",
            "telefone": null,
            "telefone2": "04 70 64 57 08",
            "latitude": "46.31305589999999500000",
            "longitude": "2.76099049999999970000",
            "departamento": "3",
            "pertence_nfi": "Não",
            "id_utilizador": "4",
            "id_log": "0"
        },
        {
            "id_cliente": "870",
            "nome": "Boulicot-Brandao",
            "morada": "rue Pasquis 03100 Montluçon",
            "telefone": null,
            "telefone2": "04 70 64 63 48",
            "latitude": "46.36513430000000000000",
            "longitude": "2.59219990000000000000",
            "departamento": "3",
            "pertence_nfi": "Não",
            "id_utilizador": "4",
            "id_log": "0"
        },
        {
            "id_cliente": "871",
            "nome": "Moulins Fenêtres",
            "morada": "38 rue Régemortes 03000 Moulins",
            "telefone": null,
            "telefone2": "04 70 35 27 38",
            "latitude": "46.56312670000000000000",
            "longitude": "3.32680880000000000000",
            "departamento": "3",
            "pertence_nfi": "Não",
            "id_utilizador": "4",
            "id_log": "0"
        },
        {
            "id_cliente": "872",
            "nome": "Menuiserie Ebenisterie Krémenski",
            "morada": "10 place 14 Juillet 03350 Cérilly",
            "telefone": "04 70 67 53 89",
            "telefone2": null,
            "latitude": "46.61772399999999500000",
            "longitude": "2.80923400000000000000",
            "departamento": "3",
            "pertence_nfi": "Não",
            "id_utilizador": "4",
            "id_log": "0"
        },
        {
            "id_cliente": "873",
            "nome": "Mister Menuiserie",
            "morada": "26 rue Albert Einstein 03100 Montluçon",
            "telefone": null,
            "telefone2": null,
            "latitude": "46.34909709999999400000",
            "longitude": "2.60672440000000000000",
            "departamento": "3",
            "pertence_nfi": "Não",
            "id_utilizador": "4",
            "id_log": "0"
        },
        {
            "id_cliente": "874",
            "nome": "Tonnerre",
            "morada": "18 route Clermont 03000 Moulins",
            "telefone": null,
            "telefone2": "04 70 46 13 28",
            "latitude": "46.55919259999999600000",
            "longitude": "3.32155280000000000000",
            "departamento": "3",
            "pertence_nfi": "Não",
            "id_utilizador": "4",
            "id_log": "0"
        },
        {
            "id_cliente": "875",
            "nome": "Menuiserie Création Design",
            "morada": "bât 2 1 rue Gravières 03500 Contigny",
            "telefone": "04 70 56 65 67",
            "telefone2": null,
            "latitude": "46.35465180000000000000",
            "longitude": "3.30353180000000000000",
            "departamento": "3",
            "pertence_nfi": "Não",
            "id_utilizador": "4",
            "id_log": "0"
        },
        {
            "id_cliente": "876",
            "nome": "Conform Energie",
            "morada": "4 rue Ardillats Za De Chateaugay 03410 Domérat",
            "telefone": null,
            "telefone2": "04 70 08 42 35",
            "latitude": "46.36517320000000000000",
            "longitude": "2.56834239999999970000",
            "departamento": "3",
            "pertence_nfi": "Não",
            "id_utilizador": "4",
            "id_log": "0"
        },
        {
            "id_cliente": "877",
            "nome": "AP Agencement",
            "morada": "lieu-dit Colombier 03150 Sanssat",
            "telefone": "06 86 53 61 46",
            "telefone2": null,
            "latitude": "46.25389980000000000000",
            "longitude": "3.47435300000000000000",
            "departamento": "3",
            "pertence_nfi": "Não",
            "id_utilizador": "4",
            "id_log": "0"
        },
        {
            "id_cliente": "878",
            "nome": "Christian Marcadier",
            "morada": "La Rencontre, 03350 Le Vilhain",
            "telefone": null,
            "telefone2": "04 70 07 21 45",
            "latitude": "46.55109170000000000000",
            "longitude": "2.80568230000000000000",
            "departamento": "3",
            "pertence_nfi": "Não",
            "id_utilizador": "4",
            "id_log": "0"
        },
        {
            "id_cliente": "879",
            "nome": "Jean-Michel Damien",
            "morada": "6 rue François Carrias 03100 Montluçon",
            "telefone": null,
            "telefone2": "04 70 08 68 19",
            "latitude": "46.35256160000000000000",
            "longitude": "2.60534930000000000000",
            "departamento": "3",
            "pertence_nfi": "Não",
            "id_utilizador": "4",
            "id_log": "0"
        },
        {
            "id_cliente": "880",
            "nome": "AMB",
            "morada": "15 impasse Léon Louis 03410 Domérat",
            "telefone": "04 70 08 61 06",
            "telefone2": null,
            "latitude": "46.34545560000000000000",
            "longitude": "2.54346010000000000000",
            "departamento": "3",
            "pertence_nfi": "Não",
            "id_utilizador": "4",
            "id_log": "0"
        },
        {
            "id_cliente": "881",
            "nome": "Confor'm Habitat SASU",
            "morada": "34 rue Ampère 03300 Cusset",
            "telefone": null,
            "telefone2": "04 70 97 94 46",
            "latitude": "46.14034369999999500000",
            "longitude": "3.44019840000000000000",
            "departamento": "3",
            "pertence_nfi": "Não",
            "id_utilizador": "4",
            "id_log": "0"
        },
        {
            "id_cliente": "882",
            "nome": "Prim Ambiance",
            "morada": "34 route Ferrières 03300 Cusset",
            "telefone": null,
            "telefone2": "06 14 23 32 63",
            "latitude": "46.12796100000000000000",
            "longitude": "3.46725799999999970000",
            "departamento": "3",
            "pertence_nfi": "Não",
            "id_utilizador": "4",
            "id_log": "0"
        },
        {
            "id_cliente": "883",
            "nome": "Daumin Menuiserie",
            "morada": "10 chemin Pointon 03190 Vallon en Sully",
            "telefone": null,
            "telefone2": "04 70 06 54 88",
            "latitude": "46.53368200000000000000",
            "longitude": "2.59664700000000000000",
            "departamento": "3",
            "pertence_nfi": "Não",
            "id_utilizador": "4",
            "id_log": "0"
        },
        {
            "id_cliente": "884",
            "nome": "Menuiserie Triboulet",
            "morada": "12 hameau Moulin A Vent 03160 Ygrande",
            "telefone": null,
            "telefone2": "06 70 97 64 08",
            "latitude": "46.55268299999999500000",
            "longitude": "2.94329599999999970000",
            "departamento": "3",
            "pertence_nfi": "Não",
            "id_utilizador": "4",
            "id_log": "0"
        },
        {
            "id_cliente": "885",
            "nome": "Pascal André",
            "morada": "18 Bis rue République 03400 Yzeure",
            "telefone": null,
            "telefone2": "04 70 34 60 57",
            "latitude": "46.55846469999999500000",
            "longitude": "3.34044319999999970000",
            "departamento": "3",
            "pertence_nfi": "Não",
            "id_utilizador": "4",
            "id_log": "0"
        },
        {
            "id_cliente": "886",
            "nome": "Menuiserie Chambonnière SAS",
            "morada": "lieu-dit Ravats 03130 Le Bouchaud",
            "telefone": null,
            "telefone2": "04 70 55 36 86",
            "latitude": "46.30776190000000000000",
            "longitude": "3.89933000000000000000",
            "departamento": "3",
            "pertence_nfi": "Não",
            "id_utilizador": "4",
            "id_log": "0"
        },
        {
            "id_cliente": "887",
            "nome": "Menuiserie Stéphane Dutour",
            "morada": "10 rue Bois 03500 Bayet",
            "telefone": null,
            "telefone2": "04 70 45 06 21",
            "latitude": "46.28513560000000000000",
            "longitude": "3.25151060000000050000",
            "departamento": "3",
            "pertence_nfi": "Não",
            "id_utilizador": "4",
            "id_log": "0"
        },
        {
            "id_cliente": "888",
            "nome": "Gustave Rideau",
            "morada": "RN 7 1 chemin Rosières 03120 Lapalisse",
            "telefone": null,
            "telefone2": "04 70 35 27 51",
            "latitude": "46.24705009999999600000",
            "longitude": "3.60949139999999960000",
            "departamento": "3",
            "pertence_nfi": "Não",
            "id_utilizador": "4",
            "id_log": "0"
        },
        {
            "id_cliente": "889",
            "nome": "Menuiserie Dutour",
            "morada": "7 rue Jean Baron 03000 Moulins",
            "telefone": null,
            "telefone2": "04 70 20 25 11",
            "latitude": "46.57597670000000000000",
            "longitude": "3.32104980000000000000",
            "departamento": "3",
            "pertence_nfi": "Não",
            "id_utilizador": "4",
            "id_log": "0"
        },
        {
            "id_cliente": "890",
            "nome": "Meridia Grandeur Nature",
            "morada": "3 rue des Morlattes 3 zone d'aménagement concerté Ancises 03300 Creuzier le Neuf",
            "telefone": null,
            "telefone2": "04 70 31 02 17",
            "latitude": "46.18177600000000000000",
            "longitude": "3.45579400000000000000",
            "departamento": "3",
            "pertence_nfi": "Não",
            "id_utilizador": "4",
            "id_log": "0"
        },
        {
            "id_cliente": "891",
            "nome": "Guy Chapelet",
            "morada": "lieu-dit Pont des Chèvres 03160 Bourbon l'Archambault",
            "telefone": null,
            "telefone2": "04 70 67 06 97",
            "latitude": "46.58441400000000000000",
            "longitude": "3.07072830000000000000",
            "departamento": "3",
            "pertence_nfi": "Não",
            "id_utilizador": "4",
            "id_log": "0"
        },
        {
            "id_cliente": "892",
            "nome": "Bruno Venasson",
            "morada": "13 Bis rue Pierre Arveuf 03390 Montmarault",
            "telefone": "04 70 07 61 99",
            "telefone2": null,
            "latitude": "46.31468359999999500000",
            "longitude": "2.96733399999999970000",
            "departamento": "3",
            "pertence_nfi": "Não",
            "id_utilizador": "4",
            "id_log": "0"
        },
        {
            "id_cliente": "893",
            "nome": "ETS Michel Picard",
            "morada": "17 Grande Rue, 03290 Dompierre sur Besbre",
            "telefone": null,
            "telefone2": "04 70 34 66 56",
            "latitude": "46.53170300000000000000",
            "longitude": "3.75038800000000000000",
            "departamento": "3",
            "pertence_nfi": "Não",
            "id_utilizador": "4",
            "id_log": "0"
        },
        {
            "id_cliente": "894",
            "nome": "Patrick Tachon",
            "morada": "lieu-dit Bourg 03120 Isserpent",
            "telefone": null,
            "telefone2": "06 31 06 46 99",
            "latitude": "46.18100500000000000000",
            "longitude": "3.65569940000000000000",
            "departamento": "3",
            "pertence_nfi": "Não",
            "id_utilizador": "4",
            "id_log": "0"
        },
        {
            "id_cliente": "895",
            "nome": "Menuiserie MARINIER et GAY SARL",
            "morada": "14 rue 4 Septembre 03000 MOULINS",
            "telefone": null,
            "telefone2": "06 07 09 49 10",
            "latitude": "46.56381719999999500000",
            "longitude": "3.33354970000000000000",
            "departamento": "3",
            "pertence_nfi": "Não",
            "id_utilizador": "4",
            "id_log": "0"
        },
        {
            "id_cliente": "896",
            "nome": "Pascal Andre",
            "morada": "31 rue Bergeron Vébret 03400 Yzeure",
            "telefone": null,
            "telefone2": "04 70 46 01 93",
            "latitude": "46.56356330000000000000",
            "longitude": "3.35552040000000000000",
            "departamento": "3",
            "pertence_nfi": "Não",
            "id_utilizador": "4",
            "id_log": "0"
        },
        {
            "id_cliente": "897",
            "nome": "La Pose Richard",
            "morada": "30 chemin Chaumes 03700 Bellerive sur Allier",
            "telefone": null,
            "telefone2": "06 24 54 12 78",
            "latitude": "46.13437419999999600000",
            "longitude": "3.38838409999999970000",
            "departamento": "3",
            "pertence_nfi": "Não",
            "id_utilizador": "4",
            "id_log": "0"
        },
        {
            "id_cliente": "898",
            "nome": "Bobe Serrurerie Métallerie B.S.M",
            "morada": "40 allée Soupirs 03000 Moulins",
            "telefone": null,
            "telefone2": "04 70 44 31 50",
            "latitude": "46.57137420000000000000",
            "longitude": "3.32087890000000000000",
            "departamento": "3",
            "pertence_nfi": "Não",
            "id_utilizador": "4",
            "id_log": "0"
        },
        {
            "id_cliente": "899",
            "nome": "ACM Corre menuiserie",
            "morada": "zone d'aménagement concerté Ancises 03300 Creuzier le Neuf",
            "telefone": null,
            "telefone2": "04 70 32 51 92",
            "latitude": "46.18177600000000000000",
            "longitude": "3.45579400000000000000",
            "departamento": "3",
            "pertence_nfi": "Não",
            "id_utilizador": "4",
            "id_log": "0"
        },
        {
            "id_cliente": "900",
            "nome": "Patrick Robert",
            "morada": "15 rue Monge 03100 Montluçon",
            "telefone": null,
            "telefone2": "04 70 03 75 62",
            "latitude": "46.34600830000000000000",
            "longitude": "2.58247680000000000000",
            "departamento": "3",
            "pertence_nfi": "Não",
            "id_utilizador": "4",
            "id_log": "0"
        },
        {
            "id_cliente": "901",
            "nome": "Berry Wood SA",
            "morada": "La Tuilerie, 03360 Meaulne",
            "telefone": null,
            "telefone2": "04 70 08 15 15",
            "latitude": "46.61280689999999500000",
            "longitude": "2.60229790000000000000",
            "departamento": "3",
            "pertence_nfi": "Não",
            "id_utilizador": "4",
            "id_log": "0"
        },
        {
            "id_cliente": "902",
            "nome": "Patrick Drifford",
            "morada": "lieu-dit Cros 03120 Le Breuil",
            "telefone": null,
            "telefone2": "09 81 95 52 49",
            "latitude": "46.15417990000000000000",
            "longitude": "3.66179500000000000000",
            "departamento": "3",
            "pertence_nfi": "Não",
            "id_utilizador": "4",
            "id_log": "0"
        },
        {
            "id_cliente": "903",
            "nome": "Pierre-Yves Landrière",
            "morada": "4 rue Verrerie 03210 Souvigny",
            "telefone": null,
            "telefone2": "04 70 43 66 42",
            "latitude": "46.53349319999999500000",
            "longitude": "3.19199480000000000000",
            "departamento": "3",
            "pertence_nfi": "Não",
            "id_utilizador": "4",
            "id_log": "0"
        },
        {
            "id_cliente": "904",
            "nome": "100 Pour Cent Bois",
            "morada": "6 lieu-dit Granges 03510 Chassenard",
            "telefone": null,
            "telefone2": "03 85 88 54 02",
            "latitude": "46.39952930000000000000",
            "longitude": "3.97502200000000000000",
            "departamento": "3",
            "pertence_nfi": "Não",
            "id_utilizador": "4",
            "id_log": "0"
        },
        {
            "id_cliente": "905",
            "nome": "Atelier Bourbonnais",
            "morada": "17 r du Deffand-Les Tuileries le Deffant, 03500 Saint Pourçain sur Sioule",
            "telefone": "04 70 45 47 45",
            "telefone2": null,
            "latitude": "46.28507300000000000000",
            "longitude": "3.29599260000000000000",
            "departamento": "3",
            "pertence_nfi": "Não",
            "id_utilizador": "4",
            "id_log": "0"
        },
        {
            "id_cliente": "906",
            "nome": "Lamoussière Christian",
            "morada": "1 rue Tour des Murs 03320 Le Veurdre",
            "telefone": null,
            "telefone2": "04 70 66 40 70",
            "latitude": "46.75616009999999500000",
            "longitude": "3.04196360000000000000",
            "departamento": "3",
            "pertence_nfi": "Não",
            "id_utilizador": "4",
            "id_log": "0"
        },
        {
            "id_cliente": "907",
            "nome": "Dominique Feuillade",
            "morada": "9 route Quinssaines 03380 Saint Martinien",
            "telefone": "04 70 51 85 12",
            "telefone2": null,
            "latitude": "46.33465500000000000000",
            "longitude": "2.47746899999999970000",
            "departamento": "3",
            "pertence_nfi": "Não",
            "id_utilizador": "4",
            "id_log": "0"
        },
        {
            "id_cliente": "908",
            "nome": "Pascal Teixeira",
            "morada": "Route De Beauregard 669 route Goutelle 03310 Villebret",
            "telefone": null,
            "telefone2": "06 65 79 01 59",
            "latitude": "46.29127599999999600000",
            "longitude": "2.60523690000000000000",
            "departamento": "3",
            "pertence_nfi": "Não",
            "id_utilizador": "4",
            "id_log": "0"
        },
        {
            "id_cliente": "909",
            "nome": "Grosfillex Chêne Doré",
            "morada": "5 rue Ardillats 03410 Domérat",
            "telefone": null,
            "telefone2": "04 70 64 44 18",
            "latitude": "46.36545500000000000000",
            "longitude": "2.56887099999999970000",
            "departamento": "3",
            "pertence_nfi": "Não",
            "id_utilizador": "4",
            "id_log": "0"
        },
        {
            "id_cliente": "910",
            "nome": "Olivier Frontière",
            "morada": "bât Am 290 6 chemin Bernards 03130 Le Donjon",
            "telefone": null,
            "telefone2": "04 70 99 55 22",
            "latitude": "46.35416590000000000000",
            "longitude": "3.78621329999999960000",
            "departamento": "3",
            "pertence_nfi": "Não",
            "id_utilizador": "4",
            "id_log": "0"
        },
        {
            "id_cliente": "911",
            "nome": "La Metallerie",
            "morada": "51 route Gannat 03140 Chantelle",
            "telefone": null,
            "telefone2": "09 54 68 21 85",
            "latitude": "46.23279009999999500000",
            "longitude": "3.15653260000000000000",
            "departamento": "3",
            "pertence_nfi": "Não",
            "id_utilizador": "4",
            "id_log": "0"
        },
        {
            "id_cliente": "912",
            "nome": "Alain Gendre",
            "morada": "5 rue Pavillon 03430 Cosne d'Allier",
            "telefone": null,
            "telefone2": "04 70 51 93 87",
            "latitude": "46.47466010000000000000",
            "longitude": "2.83365559999999970000",
            "departamento": "3",
            "pertence_nfi": "Não",
            "id_utilizador": "4",
            "id_log": "0"
        },
        {
            "id_cliente": "913",
            "nome": "Richard Ladevie",
            "morada": "3 route Bessay Sur Allier 03340 Gouise",
            "telefone": "04 70 43 04 83",
            "telefone2": null,
            "latitude": "46.41056670000000000000",
            "longitude": "3.42843560000000000000",
            "departamento": "3",
            "pertence_nfi": "Não",
            "id_utilizador": "4",
            "id_log": "0"
        },
        {
            "id_cliente": "914",
            "nome": "DECO BOIS 03",
            "morada": "Le Champs de l'Ombre, 03350 Cérilly",
            "telefone": null,
            "telefone2": "04 70 67 19 51",
            "latitude": "46.71780740000000000000",
            "longitude": "2.61854240000000000000",
            "departamento": "3",
            "pertence_nfi": "Não",
            "id_utilizador": "4",
            "id_log": "0"
        },
        {
            "id_cliente": "915",
            "nome": "Cédric Tartarin",
            "morada": "lieu-dit Mornier 03250 Le Mayet de Montagne",
            "telefone": null,
            "telefone2": "09 66 92 21 16",
            "latitude": "46.05997800000000000000",
            "longitude": "3.65647999999999970000",
            "departamento": "3",
            "pertence_nfi": "Não",
            "id_utilizador": "4",
            "id_log": "0"
        },
        {
            "id_cliente": "916",
            "nome": "Pierre Sadde",
            "morada": "Nettes Batiment, 03430 Cosne d'Allier",
            "telefone": null,
            "telefone2": "06 88 90 68 49",
            "latitude": "46.47220730000000000000",
            "longitude": "2.82316700000000000000",
            "departamento": "3",
            "pertence_nfi": "Não",
            "id_utilizador": "4",
            "id_log": "0"
        },
        {
            "id_cliente": "917",
            "nome": "Hubert Devaux",
            "morada": "lieu-dit Jarassons 03380 Archignat",
            "telefone": null,
            "telefone2": "04 70 06 35 52",
            "latitude": "46.36955480000000000000",
            "longitude": "2.43130140000000000000",
            "departamento": "3",
            "pertence_nfi": "Não",
            "id_utilizador": "4",
            "id_log": "0"
        },
        {
            "id_cliente": "918",
            "nome": "SERRURERIE METALLERIE MAROLLES S2M",
            "morada": "2 impasse Coquet 03260 Saint Germain des Fossés",
            "telefone": null,
            "telefone2": "04 70 32 88 76",
            "latitude": "46.21101669999999500000",
            "longitude": "3.44035239999999960000",
            "departamento": "3",
            "pertence_nfi": "Não",
            "id_utilizador": "4",
            "id_log": "0"
        },
        {
            "id_cliente": "919",
            "nome": "Artisans De L'habitat ADLH",
            "morada": "10 rue Flora Tristan 03400 Yzeure",
            "telefone": null,
            "telefone2": "04 70 20 12 17",
            "latitude": "46.55985240000000000000",
            "longitude": "3.36128540000000000000",
            "departamento": "3",
            "pertence_nfi": "Não",
            "id_utilizador": "4",
            "id_log": "0"
        },
        {
            "id_cliente": "920",
            "nome": "Jacky Toussaint",
            "morada": "54 rue Jean Alexis Bayet 03600 Commentry",
            "telefone": null,
            "telefone2": "04 70 64 42 13",
            "latitude": "46.30028559999999500000",
            "longitude": "2.74113560000000000000",
            "departamento": "3",
            "pertence_nfi": "Não",
            "id_utilizador": "4",
            "id_log": "0"
        },
        {
            "id_cliente": "921",
            "nome": "Eric Chaucheprat",
            "morada": "2 rue Bascule 03800 Biozat",
            "telefone": null,
            "telefone2": "04 70 56 59 23",
            "latitude": "46.07773900000000000000",
            "longitude": "3.27226250000000000000",
            "departamento": "3",
            "pertence_nfi": "Não",
            "id_utilizador": "4",
            "id_log": "0"
        },
        {
            "id_cliente": "922",
            "nome": "Jean Sabot",
            "morada": "route Briailles 03500 Saint Pourçain sur Sioule",
            "telefone": null,
            "telefone2": "04 70 47 40 87",
            "latitude": "46.30258700000000000000",
            "longitude": "3.32836100000000000000",
            "departamento": "3",
            "pertence_nfi": "Não",
            "id_utilizador": "4",
            "id_log": "0"
        },
        {
            "id_cliente": "923",
            "nome": "Entreprise Grange",
            "morada": "22 avenue Portes Occitanes 03800 Gannat",
            "telefone": null,
            "telefone2": "04 49 12 59 17",
            "latitude": "46.07467800000000000000",
            "longitude": "3.20236699999999970000",
            "departamento": "3",
            "pertence_nfi": "Não",
            "id_utilizador": "4",
            "id_log": "0"
        },
        {
            "id_cliente": "924",
            "nome": "Bigmat",
            "morada": "Za De Saudine Rte Pouzy lieu-dit Saudine 03320 Lurcy Lévis",
            "telefone": "04 70 67 81 66",
            "telefone2": null,
            "latitude": "46.72683970000000000000",
            "longitude": "2.94502410000000000000",
            "departamento": "3",
            "pertence_nfi": "Não",
            "id_utilizador": "4",
            "id_log": "0"
        },
        {
            "id_cliente": "925",
            "nome": "Mickael Baptista Vieira",
            "morada": "15 route Breuil 03410 Lignerolles",
            "telefone": null,
            "telefone2": "07 60 37 01 82",
            "latitude": "46.28657099999999500000",
            "longitude": "2.57875600000000000000",
            "departamento": "3",
            "pertence_nfi": "Não",
            "id_utilizador": "4",
            "id_log": "0"
        },
        {
            "id_cliente": "926",
            "nome": "Menuiserie Rothen",
            "morada": "Ancienne Gare Les Prévôsts, 03390 Saint Bonnet de Four",
            "telefone": null,
            "telefone2": "04 70 07 35 53",
            "latitude": "46.31560080000000000000",
            "longitude": "2.90575780000000000000",
            "departamento": "3",
            "pertence_nfi": "Não",
            "id_utilizador": "4",
            "id_log": "0"
        },
        {
            "id_cliente": "927",
            "nome": "Tmda",
            "morada": "lieu-dit Maison du Garde 03150 Montoldre",
            "telefone": "06 36 93 25 13",
            "telefone2": null,
            "latitude": "46.33282600000000000000",
            "longitude": "3.44870500000000000000",
            "departamento": "3",
            "pertence_nfi": "Não",
            "id_utilizador": "4",
            "id_log": "0"
        },
        {
            "id_cliente": "928",
            "nome": "GPE AGENCEMENT MENUISERIE AUVERGNE",
            "morada": "16 avenue Stalingrad 03630 Désertines",
            "telefone": null,
            "telefone2": "04 70 05 69 08",
            "latitude": "46.36101650000000000000",
            "longitude": "2.61941910000000000000",
            "departamento": "3",
            "pertence_nfi": "Não",
            "id_utilizador": "4",
            "id_log": "0"
        },
        {
            "id_cliente": "929",
            "nome": "Sébastien Payant",
            "morada": "28 che Communaux, 03140 Fleuriel",
            "telefone": null,
            "telefone2": "04 70 58 04 27",
            "latitude": "46.27521900000000000000",
            "longitude": "3.15515600000000000000",
            "departamento": "3",
            "pertence_nfi": "Não",
            "id_utilizador": "4",
            "id_log": "0"
        },
        {
            "id_cliente": "930",
            "nome": "Cecometal",
            "morada": "rue Embarcadère 03600 Commentry",
            "telefone": null,
            "telefone2": "04 70 29 57 22",
            "latitude": "46.29698590000000000000",
            "longitude": "2.74162900000000000000",
            "departamento": "3",
            "pertence_nfi": "Não",
            "id_utilizador": "4",
            "id_log": "0"
        },
        {
            "id_cliente": "931",
            "nome": "Bertrand Bonnefoy",
            "morada": "21 rue Bretons 03510 Chassenard",
            "telefone": null,
            "telefone2": "03 85 53 23 08",
            "latitude": "46.46841039999999600000",
            "longitude": "3.96610689999999930000",
            "departamento": "3",
            "pertence_nfi": "Não",
            "id_utilizador": "4",
            "id_log": "0"
        },
        {
            "id_cliente": "932",
            "nome": "Menuiserie Dutour - Menuiseries Intérieures et Extérieures",
            "morada": "Zac Cap Nord zone industrielle Couasse 03000 Avermes",
            "telefone": null,
            "telefone2": "04 70 20 25 11",
            "latitude": "46.58774400000000000000",
            "longitude": "3.30759500000000000000",
            "departamento": "3",
            "pertence_nfi": "Não",
            "id_utilizador": "4",
            "id_log": "0"
        },
        {
            "id_cliente": "933",
            "nome": "Alain Ozouf",
            "morada": "3 impasse Violettes 03170 Chamblet",
            "telefone": null,
            "telefone2": "04 70 07 97 56",
            "latitude": "46.33362899999999500000",
            "longitude": "2.70837300000000000000",
            "departamento": "3",
            "pertence_nfi": "Não",
            "id_utilizador": "4",
            "id_log": "0"
        },
        {
            "id_cliente": "934",
            "nome": "Barrere Sarl",
            "morada": "84 avenue Claude Debussy 03100 Montluçon",
            "telefone": null,
            "telefone2": "04 70 06 37 96",
            "latitude": "46.32387660000000600000",
            "longitude": "2.59626660000000000000",
            "departamento": "3",
            "pertence_nfi": "Não",
            "id_utilizador": "4",
            "id_log": "0"
        },
        {
            "id_cliente": "935",
            "nome": "Michel Décoret",
            "morada": "la Croix Morandin, 42620 Saint Pierre Laval",
            "telefone": null,
            "telefone2": "04 70 55 05 23",
            "latitude": "46.18586640000000000000",
            "longitude": "3.78162300000000000000",
            "departamento": "3",
            "pertence_nfi": "Não",
            "id_utilizador": "4",
            "id_log": "0"
        },
        {
            "id_cliente": "936",
            "nome": "MALHURET BOIS METAL MENUISERIES MBM MENUISERIES",
            "morada": "15 rue Henri Barbusse 03160 Ygrande",
            "telefone": null,
            "telefone2": null,
            "latitude": "46.55384730000000000000",
            "longitude": "2.94179999999999970000",
            "departamento": "3",
            "pertence_nfi": "Não",
            "id_utilizador": "4",
            "id_log": "0"
        },
        {
            "id_cliente": "937",
            "nome": "Menuiserie Martin",
            "morada": "1 rue Villette 03150 Varennes sur Allier",
            "telefone": null,
            "telefone2": "04 70 45 17 61",
            "latitude": "46.31167400000000000000",
            "longitude": "3.40584749999999970000",
            "departamento": "3",
            "pertence_nfi": "Não",
            "id_utilizador": "4",
            "id_log": "0"
        },
        {
            "id_cliente": "938",
            "nome": "Didier Claire",
            "morada": "5 impasse Pièce du Chene 03000 Coulandon",
            "telefone": null,
            "telefone2": "04 70 43 61 46",
            "latitude": "46.54591060000000600000",
            "longitude": "3.26558540000000000000",
            "departamento": "3",
            "pertence_nfi": "Não",
            "id_utilizador": "4",
            "id_log": "0"
        },
        {
            "id_cliente": "939",
            "nome": "L'atelier bois d'Aurel",
            "morada": "bât Al 160 3 avenue Boulaire 03250 MAYET DE MONTAGNE (LE)",
            "telefone": null,
            "telefone2": "04 70 90 59 79",
            "latitude": "46.06841250000001000000",
            "longitude": "3.65879010000000000000",
            "departamento": "3",
            "pertence_nfi": "Não",
            "id_utilizador": "4",
            "id_log": "0"
        },
        {
            "id_cliente": "940",
            "nome": "Alerwa",
            "morada": "2 impasse Montplaisir 03410 Domérat",
            "telefone": null,
            "telefone2": "06 42 64 73 14",
            "latitude": "46.35720519999999600000",
            "longitude": "2.57864380000000000000",
            "departamento": "3",
            "pertence_nfi": "Não",
            "id_utilizador": "4",
            "id_log": "0"
        },
        {
            "id_cliente": "941",
            "nome": "Mr Menuiserie",
            "morada": "bât Yb 112 1 chemin Bosse 03450 Vicq",
            "telefone": null,
            "telefone2": "04 70 41 05 22",
            "latitude": "46.14028080000000000000",
            "longitude": "3.09136640000000000000",
            "departamento": "3",
            "pertence_nfi": "Não",
            "id_utilizador": "4",
            "id_log": "0"
        },
        {
            "id_cliente": "942",
            "nome": "Gilles Boulicot",
            "morada": "lieu-dit Grands Champs 03600 Colombier",
            "telefone": null,
            "telefone2": "09 87 88 17 66",
            "latitude": "46.27129499999999500000",
            "longitude": "2.79352000000000000000",
            "departamento": "3",
            "pertence_nfi": "Não",
            "id_utilizador": "4",
            "id_log": "0"
        },
        {
            "id_cliente": "943",
            "nome": "Alu Fr",
            "morada": "Za Aeroport rue Vichy 03110 Saint Rémy en Rollat",
            "telefone": null,
            "telefone2": "04 70 58 37 20",
            "latitude": "46.17858550000000000000",
            "longitude": "3.39637780000000000000",
            "departamento": "3",
            "pertence_nfi": "Não",
            "id_utilizador": "4",
            "id_log": "0"
        },
        {
            "id_cliente": "944",
            "nome": "Saint Rémy Rénovation SARL",
            "morada": "3 rue Augerolles 03110 Saint Rémy en Rollat",
            "telefone": null,
            "telefone2": "04 70 41 94 15",
            "latitude": "46.18532390000000000000",
            "longitude": "3.39127999999999960000",
            "departamento": "3",
            "pertence_nfi": "Não",
            "id_utilizador": "4",
            "id_log": "0"
        },
        {
            "id_cliente": "945",
            "nome": "Abel Menuiserie",
            "morada": "6 Che De La Platriere 6 chemin Plâtrière 03360 Valigny",
            "telefone": null,
            "telefone2": "07 82 49 14 48",
            "latitude": "46.70639579999999600000",
            "longitude": "2.83622030000000000000",
            "departamento": "3",
            "pertence_nfi": "Não",
            "id_utilizador": "4",
            "id_log": "0"
        },
        {
            "id_cliente": "946",
            "nome": "De Soultrait Benoît",
            "morada": "lieu-dit Andrienne 03210 Souvigny",
            "telefone": null,
            "telefone2": "06 09 62 14 71",
            "latitude": "46.54094999999999500000",
            "longitude": "3.20957599999999980000",
            "departamento": "3",
            "pertence_nfi": "Não",
            "id_utilizador": "4",
            "id_log": "0"
        },
        {
            "id_cliente": "947",
            "nome": "Entreprise Conor",
            "morada": "Le Bourg 2 chemin Diales 63440 Saint Quintin sur Sioule",
            "telefone": "04 70 90 72 07",
            "telefone2": null,
            "latitude": "46.10097150000000000000",
            "longitude": "3.07159150000000000000",
            "departamento": "3",
            "pertence_nfi": "Não",
            "id_utilizador": "4",
            "id_log": "0"
        },
        {
            "id_cliente": "948",
            "nome": "Chomet Dumond",
            "morada": "11 rue Vouroux 03150 Varennes sur Allier",
            "telefone": null,
            "telefone2": "04 70 47 40 58",
            "latitude": "46.31477020000000000000",
            "longitude": "3.39753770000000040000",
            "departamento": "3",
            "pertence_nfi": "Não",
            "id_utilizador": "4",
            "id_log": "0"
        },
        {
            "id_cliente": "949",
            "nome": "Fifi Fermetures",
            "morada": "2 impasse Montplaisir 03410 Domérat",
            "telefone": null,
            "telefone2": "04 70 09 32 20",
            "latitude": "46.35720519999999600000",
            "longitude": "2.57864380000000000000",
            "departamento": "3",
            "pertence_nfi": "Não",
            "id_utilizador": "4",
            "id_log": "0"
        },
        {
            "id_cliente": "950",
            "nome": "Tradition Bois Bourbonnais",
            "morada": "bât Zone Industrielle 201 zone artisanale Chamboirat 03450 Ebreuil",
            "telefone": null,
            "telefone2": "04 70 90 93 12",
            "latitude": "46.11228630000000000000",
            "longitude": "3.09826280000000000000",
            "departamento": "3",
            "pertence_nfi": "Não",
            "id_utilizador": "4",
            "id_log": "0"
        },
        {
            "id_cliente": "951",
            "nome": "Menuiserie Coulon",
            "morada": "62 rue Fiats 03270 Saint Yorre",
            "telefone": null,
            "telefone2": "09 81 34 03 57",
            "latitude": "46.08099300000000000000",
            "longitude": "3.47473100000000000000",
            "departamento": "3",
            "pertence_nfi": "Não",
            "id_utilizador": "4",
            "id_log": "0"
        },
        {
            "id_cliente": "952",
            "nome": "Le Menuisier De Montlucon",
            "morada": "20 rue Benoist d'Azy 03100 Montluçon",
            "telefone": null,
            "telefone2": "04 70 06 03 08",
            "latitude": "46.35773100000000000000",
            "longitude": "2.60474760000000000000",
            "departamento": "3",
            "pertence_nfi": "Não",
            "id_utilizador": "4",
            "id_log": "0"
        },
        {
            "id_cliente": "953",
            "nome": "Olivier Morand",
            "morada": "lieu-dit Chereux 03210 Besson",
            "telefone": null,
            "telefone2": "04 63 83 91 91",
            "latitude": "46.47147899999999500000",
            "longitude": "3.24528899999999960000",
            "departamento": "3",
            "pertence_nfi": "Não",
            "id_utilizador": "4",
            "id_log": "0"
        },
        {
            "id_cliente": "954",
            "nome": "Bourbon Menuiserie",
            "morada": "29 Bis boulevard Mouilleres 03160 Bourbon l'Archambault",
            "telefone": null,
            "telefone2": "04 70 67 06 10",
            "latitude": "46.58738450000000000000",
            "longitude": "3.06752150000000000000",
            "departamento": "3",
            "pertence_nfi": "Não",
            "id_utilizador": "4",
            "id_log": "0"
        },
        {
            "id_cliente": "955",
            "nome": "Guillaume Kuchcik",
            "morada": "6 rue Châtelet 03100 Montluçon",
            "telefone": null,
            "telefone2": "04 70 07 95 33",
            "latitude": "46.34194360000000000000",
            "longitude": "2.59806979999999980000",
            "departamento": "3",
            "pertence_nfi": "Não",
            "id_utilizador": "4",
            "id_log": "0"
        },
        {
            "id_cliente": "956",
            "nome": "LE MARCHE DU MENUISIER",
            "morada": "19 avenue Jules Guesde 03100 Montluçon",
            "telefone": null,
            "telefone2": "06 66 24 26 89",
            "latitude": "46.34160689999999500000",
            "longitude": "2.58808900000000000000",
            "departamento": "3",
            "pertence_nfi": "Não",
            "id_utilizador": "4",
            "id_log": "0"
        },
        {
            "id_cliente": "957",
            "nome": "REMY MOREL",
            "morada": "lieu-dit Champ du Grand Champ 03210 Marigny",
            "telefone": null,
            "telefone2": "06 59 88 39 70",
            "latitude": "46.58092300000000000000",
            "longitude": "3.20870600000000000000",
            "departamento": "3",
            "pertence_nfi": "Não",
            "id_utilizador": "4",
            "id_log": "0"
        },
        {
            "id_cliente": "958",
            "nome": "Artisans Menuisiers Bourbonnais",
            "morada": "lieu-dit Petit Moulin 03310 Durdat Larequille",
            "telefone": null,
            "telefone2": "06 30 71 38 88",
            "latitude": "46.24936239999999500000",
            "longitude": "2.69188040000000000000",
            "departamento": "3",
            "pertence_nfi": "Não",
            "id_utilizador": "4",
            "id_log": "0"
        },
        {
            "id_cliente": "959",
            "nome": "VIDAL EMMANUEL",
            "morada": "lieu-dit Pouillards 03110 Brout Vernet",
            "telefone": null,
            "telefone2": "06 08 04 83 41",
            "latitude": "46.20333199999999600000",
            "longitude": "3.31063400000000000000",
            "departamento": "3",
            "pertence_nfi": "Não",
            "id_utilizador": "4",
            "id_log": "0"
        },
        {
            "id_cliente": "960",
            "nome": "Daniel Vilpreux",
            "morada": "lieu-dit Granges 03350 Theneuille",
            "telefone": null,
            "telefone2": "04 70 67 58 57",
            "latitude": "46.59265360000000000000",
            "longitude": "2.85340720000000000000",
            "departamento": "3",
            "pertence_nfi": "Não",
            "id_utilizador": "4",
            "id_log": "0"
        },
        {
            "id_cliente": "961",
            "nome": "Atelier du Bois Duyck",
            "morada": "lieu-dit Revoux 03310 Durdat Larequille",
            "telefone": "06 68 80 22 28",
            "telefone2": null,
            "latitude": "46.25116399999999600000",
            "longitude": "2.69761300000000000000",
            "departamento": "3",
            "pertence_nfi": "Não",
            "id_utilizador": "4",
            "id_log": "0"
        },
        {
            "id_cliente": "962",
            "nome": "AMBIANCE MENUISERIE",
            "morada": "1 lieu-dit Demoiselle 03150 Saint Gérand le Puy",
            "telefone": null,
            "telefone2": "04 70 99 88 74",
            "latitude": "46.26150140000000000000",
            "longitude": "3.50430830000000000000",
            "departamento": "3",
            "pertence_nfi": "Não",
            "id_utilizador": "4",
            "id_log": "0"
        },
        {
            "id_cliente": "963",
            "nome": "Lanier Meunier Fils",
            "morada": "30 avenue Durin 03200 Vichy",
            "telefone": null,
            "telefone2": "07 60 02 54 47",
            "latitude": "46.13560270000000000000",
            "longitude": "3.42665490000000000000",
            "departamento": "3",
            "pertence_nfi": "Não",
            "id_utilizador": "4",
            "id_log": "0"
        },
        {
            "id_cliente": "964",
            "nome": "Baptimicka SARL",
            "morada": "15 route Breuil 03410 Lignerolles",
            "telefone": null,
            "telefone2": "04 70 05 84 44",
            "latitude": "46.28657099999999500000",
            "longitude": "2.57875600000000000000",
            "departamento": "3",
            "pertence_nfi": "Não",
            "id_utilizador": "4",
            "id_log": "0"
        },
        {
            "id_cliente": "965",
            "nome": "DO MENUSERIE",
            "morada": "lieu-dit Velle 03160 Saint Plaisir",
            "telefone": null,
            "telefone2": "04 70 66 67 98",
            "latitude": "46.61111690000000000000",
            "longitude": "2.98307400000000000000",
            "departamento": "3",
            "pertence_nfi": "Não",
            "id_utilizador": "4",
            "id_log": "0"
        },
        {
            "id_cliente": "966",
            "nome": "Patrick Brenon",
            "morada": "7 rue Essues 03150 Boucé",
            "telefone": null,
            "telefone2": "04 70 43 74 93",
            "latitude": "46.31702459999999600000",
            "longitude": "3.50811750000000000000",
            "departamento": "3",
            "pertence_nfi": "Não",
            "id_utilizador": "4",
            "id_log": "0"
        },
        {
            "id_cliente": "967",
            "nome": "L'Atelier de Ludo",
            "morada": "54 rue Brunet 03630 Désertines",
            "telefone": null,
            "telefone2": "06 95 56 31 84",
            "latitude": "46.35023640000000000000",
            "longitude": "2.61926510000000000000",
            "departamento": "3",
            "pertence_nfi": "Não",
            "id_utilizador": "4",
            "id_log": "0"
        },
        {
            "id_cliente": "968",
            "nome": "A.M.V.",
            "morada": "109 route Lyon 03000 Moulins",
            "telefone": null,
            "telefone2": "04 63 07 03 43",
            "latitude": "46.54800140000000000000",
            "longitude": "3.33944890000000000000",
            "departamento": "3",
            "pertence_nfi": "Não",
            "id_utilizador": "4",
            "id_log": "0"
        },
        {
            "id_cliente": "969",
            "nome": "Sébastien Lacogne",
            "morada": "15 rue Dacs 03110 Brout Vernet",
            "telefone": null,
            "telefone2": "06 08 45 83 91",
            "latitude": "46.19549199999999400000",
            "longitude": "3.29660700000000000000",
            "departamento": "3",
            "pertence_nfi": "Não",
            "id_utilizador": "4",
            "id_log": "0"
        },