{
    "dados10": [
        {
            "id_cliente": "2571",
            "nome": "Menuiserie Amc Bois",
            "morada": "98 rue Nicolas Remond 10800 Saint Julien les Villas",
            "telefone": "06 67 37 42 37",
            "telefone2": null,
            "latitude": "48.27901290000000000000",
            "longitude": "4.09730990000000000000",
            "departamento": "10",
            "pertence_nfi": "não",
            "id_utilizador": "2",
            "id_log": "0"
        },
        {
            "id_cliente": "2572",
            "nome": "Aub'Bois SARL",
            "morada": "8 rue Epingliers 10120 Saint André les Vergers",
            "telefone": "03 25 71 75 35",
            "telefone2": null,
            "latitude": "48.26624849999999600000",
            "longitude": "4.04236140000000000000",
            "departamento": "10",
            "pertence_nfi": "não",
            "id_utilizador": "2",
            "id_log": "0"
        },
        {
            "id_cliente": "2573",
            "nome": "Lambert Menuiserie",
            "morada": "1 rue Ancien Château 10130 Saint Phal",
            "telefone": "03 25 42 16 34",
            "telefone2": null,
            "latitude": "48.11957100000000000000",
            "longitude": "3.99541599999999900000",
            "departamento": "10",
            "pertence_nfi": "não",
            "id_utilizador": "2",
            "id_log": "0"
        },
        {
            "id_cliente": "2574",
            "nome": "Stores Krasnopolsky Paul S.K.P",
            "morada": "4 rue Epingliers 10120 Saint André les Vergers",
            "telefone": "03 25 82 03 13",
            "telefone2": null,
            "latitude": "48.26590750000000400000",
            "longitude": "4.04153180000000000000",
            "departamento": "10",
            "pertence_nfi": "não",
            "id_utilizador": "2",
            "id_log": "0"
        },
        {
            "id_cliente": "2575",
            "nome": "L'Atelier Au Bois",
            "morada": "1 rue Auguste Renoir 10440 La Rivière de Corps",
            "telefone": "06 62 67 19 17",
            "telefone2": null,
            "latitude": "48.28909890000000000000",
            "longitude": "4.02014160000000000000",
            "departamento": "10",
            "pertence_nfi": "não",
            "id_utilizador": "2",
            "id_log": "0"
        },
        {
            "id_cliente": "2576",
            "nome": "L'Atelier M",
            "morada": "140 Bis avenue Chomedey de Maisonneuve 10000 Troyes",
            "telefone": "07 69 44 06 38",
            "telefone2": null,
            "latitude": "48.31090080000000000000",
            "longitude": "4.06722760000000000000",
            "departamento": "10",
            "pertence_nfi": "não",
            "id_utilizador": "2",
            "id_log": "0"
        },
        {
            "id_cliente": "2577",
            "nome": "Savinienne De Serrurerie SARL",
            "morada": "rue Victor Hugo 10430 Rosières près Troyes",
            "telefone": "03 25 82 06 03",
            "telefone2": null,
            "latitude": "48.26484760000000000000",
            "longitude": "4.07035490000000000000",
            "departamento": "10",
            "pertence_nfi": "não",
            "id_utilizador": "2",
            "id_log": "0"
        },
        {
            "id_cliente": "2578",
            "nome": "Menuiserie Millard",
            "morada": "11 rue Gornet Boivin 10100 Romilly sur Seine",
            "telefone": "03 25 21 18 01",
            "telefone2": null,
            "latitude": "48.51886830000000000000",
            "longitude": "3.72733610000000000000",
            "departamento": "10",
            "pertence_nfi": "não",
            "id_utilizador": "2",
            "id_log": "0"
        },
        {
            "id_cliente": "2579",
            "nome": "Menuiserie Forgeot",
            "morada": "4 rue Baudets 10510 Maizières la Grande Paroisse",
            "telefone": "03 25 39 99 91",
            "telefone2": null,
            "latitude": "48.50451390000000000000",
            "longitude": "3.78070300000000000000",
            "departamento": "10",
            "pertence_nfi": "não",
            "id_utilizador": "2",
            "id_log": "0"
        },
        {
            "id_cliente": "2580",
            "nome": "Isostores 3",
            "morada": "zone industrielle Torvilliers 10440 Torvilliers",
            "telefone": "03 25 74 96 24",
            "telefone2": null,
            "latitude": "48.27454189999999600000",
            "longitude": "3.97615600000000050000",
            "departamento": "10",
            "pertence_nfi": "não",
            "id_utilizador": "2",
            "id_log": "0"
        },
        {
            "id_cliente": "2581",
            "nome": "Emmanuel Dubuisson",
            "morada": "12 faubourg St Gervais 10400 Traînel",
            "telefone": "06 10 57 01 12",
            "telefone2": null,
            "latitude": "48.41682590000000000000",
            "longitude": "3.44362699999999980000",
            "departamento": "10",
            "pertence_nfi": "não",
            "id_utilizador": "2",
            "id_log": "0"
        },
        {
            "id_cliente": "2582",
            "nome": "France 2000 Sarl",
            "morada": "22 rue Jean Colas 10440 Torvilliers",
            "telefone": "03 25 81 44 25",
            "telefone2": null,
            "latitude": "48.28890070000000000000",
            "longitude": "3.97929710000000000000",
            "departamento": "10",
            "pertence_nfi": "não",
            "id_utilizador": "2",
            "id_log": "0"
        },
        {
            "id_cliente": "2583",
            "nome": "Maytop Iso 10",
            "morada": "4 rue Robert Schuman 10300 Sainte Savine",
            "telefone": "03 25 74 22 11",
            "telefone2": null,
            "latitude": "48.29108100000000000000",
            "longitude": "4.01448000000000000000",
            "departamento": "10",
            "pertence_nfi": "não",
            "id_utilizador": "2",
            "id_log": "0"
        },
        {
            "id_cliente": "2584",
            "nome": "Arconcept Fermeture",
            "morada": "7 rue Jean Monnet 10300 Sainte Savine",
            "telefone": "03 25 81 32 09",
            "telefone2": null,
            "latitude": "48.29234620000000000000",
            "longitude": "4.01747820000000000000",
            "departamento": "10",
            "pertence_nfi": "não",
            "id_utilizador": "2",
            "id_log": "0"
        },
        {
            "id_cliente": "2585",
            "nome": "Menuiserie Services",
            "morada": "3 rue Fontaine 10440 La Rivière de Corps",
            "telefone": "03 25 79 56 30",
            "telefone2": null,
            "latitude": "48.28489730000000000000",
            "longitude": "4.00813190000000000000",
            "departamento": "10",
            "pertence_nfi": "não",
            "id_utilizador": "2",
            "id_log": "0"
        },
        {
            "id_cliente": "2586",
            "nome": "Habitat Lamblin",
            "morada": "130 Bis avenue Mar Leclerc 10450 Bréviandes",
            "telefone": "03 51 14 17 33",
            "telefone2": null,
            "latitude": "48.24806990000000000000",
            "longitude": "4.09899420000000000000",
            "departamento": "10",
            "pertence_nfi": "não",
            "id_utilizador": "2",
            "id_log": "0"
        },
        {
            "id_cliente": "2587",
            "nome": "Wood Construction",
            "morada": "13 rue Tropres 10150 Sainte Maure",
            "telefone": "03 25 46 24 53",
            "telefone2": null,
            "latitude": "48.33976420000000000000",
            "longitude": "4.07789980000000100000",
            "departamento": "10",
            "pertence_nfi": "não",
            "id_utilizador": "2",
            "id_log": "0"
        },
        {
            "id_cliente": "2588",
            "nome": "Repar'Stores",
            "morada": "12 rue Garennes 10700 Herbisse",
            "telefone": "07 85 99 19 70",
            "telefone2": null,
            "latitude": "48.62126999999999600000",
            "longitude": "4.10867600000000000000",
            "departamento": "10",
            "pertence_nfi": "não",
            "id_utilizador": "2",
            "id_log": "0"
        },
        {
            "id_cliente": "2589",
            "nome": "A B S",
            "morada": "rue Preize 10000 Troyes",
            "telefone": null,
            "telefone2": "06 07 05 64 49",
            "latitude": "48.30750460000000000000",
            "longitude": "4.06866410000000000000",
            "departamento": "10",
            "pertence_nfi": "não",
            "id_utilizador": "2",
            "id_log": "0"
        },
        {
            "id_cliente": "2590",
            "nome": "Menuiserie Pontoise",
            "morada": "7 rue Saules 10150 Creney près Troyes",
            "telefone": null,
            "telefone2": "03 25 80 78 89",
            "latitude": "48.32973780000000000000",
            "longitude": "4.11416260000000000000",
            "departamento": "10",
            "pertence_nfi": "não",
            "id_utilizador": "2",
            "id_log": "0"
        },
        {
            "id_cliente": "2591",
            "nome": "Villemin VM",
            "morada": "Za Les Mercières 14 rue Vignes 10410 Villechétif",
            "telefone": "03 25 81 07 09",
            "telefone2": null,
            "latitude": "48.30250040000000000000",
            "longitude": "4.13335520000000000000",
            "departamento": "10",
            "pertence_nfi": "não",
            "id_utilizador": "2",
            "id_log": "0"
        },
        {
            "id_cliente": "2592",
            "nome": "Décorénov",
            "morada": "6 rue Jean Moulin 10370 Villenauxe la Grande",
            "telefone": "03 25 21 00 12",
            "telefone2": null,
            "latitude": "48.58717880000000000000",
            "longitude": "3.56009690000000000000",
            "departamento": "10",
            "pertence_nfi": "não",
            "id_utilizador": "2",
            "id_log": "0"
        },
        {
            "id_cliente": "2593",
            "nome": "CJ Menuiserie",
            "morada": "Lepine 34 rue Commdt Cousteau Lépine 10120 Saint Germain",
            "telefone": "07 60 04 63 42",
            "telefone2": null,
            "latitude": "48.26269780000000000000",
            "longitude": "4.00399600000000000000",
            "departamento": "10",
            "pertence_nfi": "não",
            "id_utilizador": "2",
            "id_log": "0"
        },
        {
            "id_cliente": "2594",
            "nome": "Aube Fenêtres SARL",
            "morada": "27 rue Jean Moulin 10260 Virey sous Bar",
            "telefone": "03 25 29 20 10",
            "telefone2": "Service clients",
            "latitude": "48.14258210000000000000",
            "longitude": "4.30819179999999950000",
            "departamento": "10",
            "pertence_nfi": "não",
            "id_utilizador": "2",
            "id_log": "0"
        },
        {
            "id_cliente": "2595",
            "nome": "Dymatec Troyes",
            "morada": "186 avenue Pierre Brossolette 10000 Troyes",
            "telefone": null,
            "telefone2": "03 25 42 46 98",
            "latitude": "48.28449210000000000000",
            "longitude": "4.07803989999999900000",
            "departamento": "10",
            "pertence_nfi": "não",
            "id_utilizador": "2",
            "id_log": "0"
        },
        {
            "id_cliente": "2596",
            "nome": "PSM - Verre Et Fermetures SAS",
            "morada": "45 rue Louis Desprez 10200 Bar sur Aube",
            "telefone": null,
            "telefone2": "03 25 57 23 78",
            "latitude": "48.22014790000000000000",
            "longitude": "4.71179700000000000000",
            "departamento": "10",
            "pertence_nfi": "não",
            "id_utilizador": "2",
            "id_log": "0"
        },
        {
            "id_cliente": "2597",
            "nome": "Lorenove Troyes GhM PVC",
            "morada": "47 rue André Beury 10000 Troyes",
            "telefone": null,
            "telefone2": "03 25 43 03 52",
            "latitude": "48.29103850000000000000",
            "longitude": "4.07585220000000000000",
            "departamento": "10",
            "pertence_nfi": "não",
            "id_utilizador": "2",
            "id_log": "0"
        },
        {
            "id_cliente": "2598",
            "nome": "Clément Saublet",
            "morada": "22 boulevard 14 Juillet 10000 Troyes",
            "telefone": null,
            "telefone2": "03 25 42 87 17",
            "latitude": "48.29396360000000000000",
            "longitude": "4.07689780000000000000",
            "departamento": "10",
            "pertence_nfi": "não",
            "id_utilizador": "2",
            "id_log": "0"
        },
        {
            "id_cliente": "2599",
            "nome": "Astel",
            "morada": "rue Roger Salengro 10350 Marigny le Châtel",
            "telefone": "03 25 21 80 80",
            "telefone2": null,
            "latitude": "48.40879310000000000000",
            "longitude": "3.73786400000000000000",
            "departamento": "10",
            "pertence_nfi": "não",
            "id_utilizador": "2",
            "id_log": "0"
        },
        {
            "id_cliente": "2600",
            "nome": "Socobois",
            "morada": "42 rue Pasteur 10430 Rosières près Troyes",
            "telefone": "03 25 71 35 77",
            "telefone2": null,
            "latitude": "48.26334300000000000000",
            "longitude": "4.08275640000000000000",
            "departamento": "10",
            "pertence_nfi": "não",
            "id_utilizador": "2",
            "id_log": "0"
        },
        {
            "id_cliente": "2601",
            "nome": "C.D.M SAS",
            "morada": "39 avenue Martyrs du 24 Août 10800 Buchères",
            "telefone": null,
            "telefone2": "03 25 71 20 71",
            "latitude": "48.24664230000000000000",
            "longitude": "4.10004809999999950000",
            "departamento": "10",
            "pertence_nfi": "não",
            "id_utilizador": "2",
            "id_log": "0"
        },
        {
            "id_cliente": "2602",
            "nome": "MENUISERIE LEGRAND",
            "morada": "8 rue Gén Leclerc 10170 Méry sur Seine",
            "telefone": null,
            "telefone2": "03 25 21 21 55",
            "latitude": "48.50717580000000000000",
            "longitude": "3.88942769999999970000",
            "departamento": "10",
            "pertence_nfi": "não",
            "id_utilizador": "2",
            "id_log": "0"
        },
        {
            "id_cliente": "2603",
            "nome": "LTD Rénovation EURL",
            "morada": "2 rue Henri Millet 10100 Romilly sur Seine",
            "telefone": null,
            "telefone2": "03 25 24 12 60",
            "latitude": "48.52127060000000000000",
            "longitude": "3.72504769999999970000",
            "departamento": "10",
            "pertence_nfi": "não",
            "id_utilizador": "2",
            "id_log": "0"
        },
        {
            "id_cliente": "2604",
            "nome": "Ancelin",
            "morada": "15 avenue Beauregard 10400 Nogent sur Seine",
            "telefone": "03 25 39 82 30",
            "telefone2": null,
            "latitude": "48.50061470000000000000",
            "longitude": "3.49521139999999960000",
            "departamento": "10",
            "pertence_nfi": "não",
            "id_utilizador": "2",
            "id_log": "0"
        },
        {
            "id_cliente": "2605",
            "nome": "MB Fermeture",
            "morada": "49 rue Capit Cote 10270 Courteranges",
            "telefone": null,
            "telefone2": "09 86 27 31 46",
            "latitude": "48.26254000000000000000",
            "longitude": "4.23170899999999950000",
            "departamento": "10",
            "pertence_nfi": "não",
            "id_utilizador": "2",
            "id_log": "0"
        },
        {
            "id_cliente": "2606",
            "nome": "Arnauld Bazin",
            "morada": "1 rue Montevigne 10170 Rhèges",
            "telefone": "03 25 37 42 94",
            "telefone2": null,
            "latitude": "48.54737660000000000000",
            "longitude": "3.99797069999999980000",
            "departamento": "10",
            "pertence_nfi": "não",
            "id_utilizador": "2",
            "id_log": "0"
        },
        {
            "id_cliente": "2607",
            "nome": "Santin",
            "morada": "34 rue Brocard 10000 Troyes",
            "telefone": null,
            "telefone2": "03 25 76 23 60",
            "latitude": "48.30945680000000000000",
            "longitude": "4.07256620000000000000",
            "departamento": "10",
            "pertence_nfi": "não",
            "id_utilizador": "2",
            "id_log": "0"
        },
        {
            "id_cliente": "2608",
            "nome": "A.E. Menuiserie - Terres de fenêtre",
            "morada": "6 rue Nuattes 10220 Piney",
            "telefone": null,
            "telefone2": "03 25 81 92 23",
            "latitude": "48.35805080000000000000",
            "longitude": "4.33541990000000000000",
            "departamento": "10",
            "pertence_nfi": "não",
            "id_utilizador": "2",
            "id_log": "0"
        },
        {
            "id_cliente": "2609",
            "nome": "Pascal Frey",
            "morada": "38 avenue Pasteur 10500 Brienne le Château",
            "telefone": "03 25 27 52 20",
            "telefone2": null,
            "latitude": "48.39678319999999400000",
            "longitude": "4.53109420000000000000",
            "departamento": "10",
            "pertence_nfi": "não",
            "id_utilizador": "2",
            "id_log": "0"
        },
        {
            "id_cliente": "2610",
            "nome": "Romain Petit Simon Menuiserie",
            "morada": "41 rue Pont 89700 Tonnerre",
            "telefone": "03 86 54 43 08",
            "telefone2": null,
            "latitude": "47.85922530000000000000",
            "longitude": "3.97770050000000000000",
            "departamento": "10",
            "pertence_nfi": "não",
            "id_utilizador": "2",
            "id_log": "0"
        },
        {
            "id_cliente": "2611",
            "nome": "Claroplast SAS",
            "morada": "5 rue Labourat 10000 Troyes",
            "telefone": null,
            "telefone2": "03 25 83 26 90",
            "latitude": "48.31339200000000000000",
            "longitude": "4.07814340000000100000",
            "departamento": "10",
            "pertence_nfi": "não",
            "id_utilizador": "2",
            "id_log": "0"
        },
        {
            "id_cliente": "2612",
            "nome": "AM2K",
            "morada": "20 rue Paillot de Montabert 10000 Troyes",
            "telefone": null,
            "telefone2": "09 79 47 06 81",
            "latitude": "48.29703910000000000000",
            "longitude": "4.07259999999999960000",
            "departamento": "10",
            "pertence_nfi": "não",
            "id_utilizador": "2",
            "id_log": "0"
        },
        {
            "id_cliente": "2613",
            "nome": "Les Artisans du Bois",
            "morada": "1 Bis rue Douane 10600 La Chapelle Saint Luc",
            "telefone": "03 25 71 94 71",
            "telefone2": null,
            "latitude": "48.32116310000000000000",
            "longitude": "4.03486810000000100000",
            "departamento": "10",
            "pertence_nfi": "não",
            "id_utilizador": "2",
            "id_log": "0"
        },
        {
            "id_cliente": "2614",
            "nome": "Les Troyes Parquets",
            "morada": "2 ruelle Arce 10110 Merrey sur Arce",
            "telefone": "06 60 76 47 97",
            "telefone2": null,
            "latitude": "48.09674400000001000000",
            "longitude": "4.39053199999999900000",
            "departamento": "10",
            "pertence_nfi": "não",
            "id_utilizador": "2",
            "id_log": "0"
        },
        {
            "id_cliente": "2615",
            "nome": "M. Marcilly Jean-Loup",
            "morada": "19 rue Richebourg 10120 Saint Pouange",
            "telefone": "06 71 73 13 09",
            "telefone2": null,
            "latitude": "48.22991670000000000000",
            "longitude": "4.03788379999999950000",
            "departamento": "10",
            "pertence_nfi": "não",
            "id_utilizador": "2",
            "id_log": "0"
        },
        {
            "id_cliente": "2616",
            "nome": "Tdr Stores SARL",
            "morada": "15 route Lacs 10500 Epothemont",
            "telefone": "03 25 92 80 52",
            "telefone2": null,
            "latitude": "48.42637290000000000000",
            "longitude": "4.66064450000000000000",
            "departamento": "10",
            "pertence_nfi": "não",
            "id_utilizador": "2",
            "id_log": "0"
        },
        {
            "id_cliente": "2617",
            "nome": "MAUFROY SARL",
            "morada": "11 Grande Rue, 10240 Coclois",
            "telefone": "03 25 37 61 83",
            "telefone2": null,
            "latitude": "48.47664200000000000000",
            "longitude": "4.33408690000000000000",
            "departamento": "10",
            "pertence_nfi": "não",
            "id_utilizador": "2",
            "id_log": "0"
        },
        {
            "id_cliente": "2618",
            "nome": "Hilzinger Dolmen",
            "morada": "132 boulevard Dijon 10800 Saint Julien les Villas",
            "telefone": null,
            "telefone2": "03 25 75 34 96",
            "latitude": "48.27672140000000000000",
            "longitude": "4.08342800000000000000",
            "departamento": "10",
            "pertence_nfi": "não",
            "id_utilizador": "2",
            "id_log": "0"
        },
        {
            "id_cliente": "2619",
            "nome": "Tapprest Frères SARL",
            "morada": "4 rue Osiere 10800 Moussey",
            "telefone": null,
            "telefone2": "03 25 43 91 81",
            "latitude": "48.21937959999999600000",
            "longitude": "4.10147620000000000000",
            "departamento": "10",
            "pertence_nfi": "não",
            "id_utilizador": "2",
            "id_log": "0"
        },
        {
            "id_cliente": "2620",
            "nome": "Menuiserie En Othe SARL",
            "morada": "Aix en Othe 5 rue Ernest Furgon 10160 Aix Villemaur Pâlis",
            "telefone": "03 25 43 97 55",
            "telefone2": null,
            "latitude": "48.22358750000000000000",
            "longitude": "3.73107910000000000000",
            "departamento": "10",
            "pertence_nfi": "não",
            "id_utilizador": "2",
            "id_log": "0"
        },
        {
            "id_cliente": "2621",
            "nome": "Smbi SAS",
            "morada": "588 zone artisanale Savipol 10300 Sainte Savine",
            "telefone": null,
            "telefone2": "03 25 45 18 45",
            "latitude": "48.29183670000000000000",
            "longitude": "4.01398410000000000000",
            "departamento": "10",
            "pertence_nfi": "não",
            "id_utilizador": "2",
            "id_log": "0"
        },
        {
            "id_cliente": "2622",
            "nome": "Menuiserie Richet",
            "morada": "4 rue Veuve Dupont Rigault 10700 Arcis sur Aube",
            "telefone": null,
            "telefone2": "03 25 37 81 28",
            "latitude": "48.53566110000000000000",
            "longitude": "4.14510200000000000000",
            "departamento": "10",
            "pertence_nfi": "não",
            "id_utilizador": "2",
            "id_log": "0"
        },
        {
            "id_cliente": "2623",
            "nome": "Sicot Père Et Fils SARL",
            "morada": "4 Bis rue Sac Ricey Haut 10340 Les Riceys",
            "telefone": "03 25 29 98 57",
            "telefone2": "Portable",
            "latitude": "47.99045460000000000000",
            "longitude": "4.36492270000000000000",
            "departamento": "10",
            "pertence_nfi": "não",
            "id_utilizador": "2",
            "id_log": "0"
        },
        {
            "id_cliente": "2624",
            "nome": "Caséo",
            "morada": "Rue des vignes chemin Mercières 10410 Villechétif",
            "telefone": null,
            "telefone2": "03 25 73 25 26",
            "latitude": "48.30071250000000000000",
            "longitude": "4.13481530000000000000",
            "departamento": "10",
            "pertence_nfi": "não",
            "id_utilizador": "2",
            "id_log": "0"
        },
        {
            "id_cliente": "2625",
            "nome": "Artisan Bois Réalisations",
            "morada": "12 rue Orval 10190 Fontvannes",
            "telefone": null,
            "telefone2": "03 25 46 19 62",
            "latitude": "48.28089060000000000000",
            "longitude": "3.87075480000000030000",
            "departamento": "10",
            "pertence_nfi": "não",
            "id_utilizador": "2",
            "id_log": "0"
        },
        {
            "id_cliente": "2626",
            "nome": "Pailley Sarl",
            "morada": "Le Ménilot 9 voie Ormereau 10270 Montiéramey",
            "telefone": "06 08 22 01 18",
            "telefone2": null,
            "latitude": "48.23916600000000000000",
            "longitude": "4.29861100000000000000",
            "departamento": "10",
            "pertence_nfi": "não",
            "id_utilizador": "2",
            "id_log": "0"
        },
        {
            "id_cliente": "2627",
            "nome": "Ome Rénovation",
            "morada": "24 rue Thénard 10000 Troyes",
            "telefone": null,
            "telefone2": "06 68 30 08 20",
            "latitude": "48.27265120000000000000",
            "longitude": "4.08419130000000000000",
            "departamento": "10",
            "pertence_nfi": "não",
            "id_utilizador": "2",
            "id_log": "0"
        },
        {
            "id_cliente": "2628",
            "nome": "Escao Associés",
            "morada": "25 rue Gare 10270 Lusigny sur Barse",
            "telefone": null,
            "telefone2": "03 25 41 26 18",
            "latitude": "48.25286699999999500000",
            "longitude": "4.25255699999999950000",
            "departamento": "10",
            "pertence_nfi": "não",
            "id_utilizador": "2",
            "id_log": "0"
        },
        {
            "id_cliente": "2629",
            "nome": "JM3C SARL",
            "morada": "Zone Industrielle Des Pivoisons 1 rue Blaise Pascal 10430 ROSIERES PRES TROYES",
            "telefone": null,
            "telefone2": "06 21 07 70 42",
            "latitude": "48.26210380000000000000",
            "longitude": "4.04610190000000000000",
            "departamento": "10",
            "pertence_nfi": "não",
            "id_utilizador": "2",
            "id_log": "0"
        },
        {
            "id_cliente": "2630",
            "nome": "Menuiserie Minoux",
            "morada": "18 rue Fossés 10400 Nogent sur Seine",
            "telefone": null,
            "telefone2": "03 25 24 11 99",
            "latitude": "48.49229769999999500000",
            "longitude": "3.49986250000000000000",
            "departamento": "10",
            "pertence_nfi": "não",
            "id_utilizador": "2",
            "id_log": "0"
        },
        {
            "id_cliente": "2631",
            "nome": "Champagne Agencement",
            "morada": "26 rue Milford Haven 10100 Romilly sur Seine",
            "telefone": null,
            "telefone2": "03 25 24 38 57",
            "latitude": "48.50475270000000400000",
            "longitude": "3.72348449999999960000",
            "departamento": "10",
            "pertence_nfi": "não",
            "id_utilizador": "2",
            "id_log": "0"
        },
        {
            "id_cliente": "2632",
            "nome": "Menuisier Poseur Viard Michael",
            "morada": "12 rue Edouard Herriot 10120 Saint Pouange",
            "telefone": "03 25 43 89 46",
            "telefone2": null,
            "latitude": "48.22646520000000000000",
            "longitude": "4.04247840000000000000",
            "departamento": "10",
            "pertence_nfi": "não",
            "id_utilizador": "2",
            "id_log": "0"
        },
        {
            "id_cliente": "2633",
            "nome": "Menuiserie Des Troprés",
            "morada": "Za Culoison 26 rue Tropres 10150 Sainte Maure",
            "telefone": null,
            "telefone2": "06 13 39 52 93",
            "latitude": "48.33709169999999500000",
            "longitude": "4.08056380000000000000",
            "departamento": "10",
            "pertence_nfi": "não",
            "id_utilizador": "2",
            "id_log": "0"
        },
        {
            "id_cliente": "2634",
            "nome": "TRYBA CHAMPAGNE ISOLATION",
            "morada": "Za Les Mercieres 17 Bis rue Vignes 10410 Villechétif",
            "telefone": null,
            "telefone2": "03 25 82 49 46",
            "latitude": "48.30254799999999400000",
            "longitude": "4.13434390000000000000",
            "departamento": "10",
            "pertence_nfi": "não",
            "id_utilizador": "2",
            "id_log": "0"
        },
        {
            "id_cliente": "2635",
            "nome": "Modestores",
            "morada": "11 rue Chartreux 10000 Troyes",
            "telefone": null,
            "telefone2": "06 71 73 14 38",
            "latitude": "48.27777599999999600000",
            "longitude": "4.07980730000000000000",
            "departamento": "10",
            "pertence_nfi": "não",
            "id_utilizador": "2",
            "id_log": "0"
        },
        {
            "id_cliente": "2636",
            "nome": "Fillion Aymeric EIRL",
            "morada": "3 impasse Miroir 10600 Villacerf",
            "telefone": "06 49 79 28 87",
            "telefone2": null,
            "latitude": "48.39769200000000000000",
            "longitude": "3.99072200000000030000",
            "departamento": "10",
            "pertence_nfi": "não",
            "id_utilizador": "2",
            "id_log": "0"
        },
        {
            "id_cliente": "2637",
            "nome": "LG MENUISERIE",
            "morada": "1 route Maisons Blanches 10800 Buchères",
            "telefone": null,
            "telefone2": "03 10 95 27 20",
            "latitude": "48.23621410000000000000",
            "longitude": "4.10966100000000000000",
            "departamento": "10",
            "pertence_nfi": "não",
            "id_utilizador": "2",
            "id_log": "0"
        },
        {
            "id_cliente": "2638",
            "nome": "Au Vieux Chêne SARL",
            "morada": "zi 5 impasse rue Louis Desprez 10200 Bar sur Aube",
            "telefone": null,
            "telefone2": "09 74 56 05 78",
            "latitude": "48.22773180000000000000",
            "longitude": "4.71530730000000100000",
            "departamento": "10",
            "pertence_nfi": "não",
            "id_utilizador": "2",
            "id_log": "0"
        },
        {
            "id_cliente": "2639",
            "nome": "SARL La Menuiserie Champenoise",
            "morada": "murot fontaine 15 chemin Ancienne Voi Ferrée 10110 Loches sur Ource",
            "telefone": null,
            "telefone2": "03 25 29 65 20",
            "latitude": "48.06043060000000000000",
            "longitude": "4.50458589999999950000",
            "departamento": "10",
            "pertence_nfi": "não",
            "id_utilizador": "2",
            "id_log": "0"
        },
        {
            "id_cliente": "2640",
            "nome": "Maurizio Lorenzi",
            "morada": "153 rue Gén de Gaulle 10600 Mergey",
            "telefone": null,
            "telefone2": "03 25 76 68 18",
            "latitude": "48.39148400000000000000",
            "longitude": "3.99899999999999970000",
            "departamento": "10",
            "pertence_nfi": "não",
            "id_utilizador": "2",
            "id_log": "0"
        },
        {
            "id_cliente": "2641",
            "nome": "E.M.V",
            "morada": "bât Emv Menuiserie 14 rue Varennes 10140 Vendeuvre sur Barse",
            "telefone": null,
            "telefone2": "03 25 41 66 37",
            "latitude": "48.23343000000000000000",
            "longitude": "4.45139530000000000000",
            "departamento": "10",
            "pertence_nfi": "não",
            "id_utilizador": "2",
            "id_log": "0"
        },
        {
            "id_cliente": "2642",
            "nome": "Les Agenceurs Menuisiers",
            "morada": "54 avenue Jean Jaurès 10600 La Chapelle Saint Luc",
            "telefone": null,
            "telefone2": "06 68 05 91 82",
            "latitude": "48.31448409999999400000",
            "longitude": "4.03273489999999950000",
            "departamento": "10",
            "pertence_nfi": "não",
            "id_utilizador": "2",
            "id_log": "0"
        },
        {
            "id_cliente": "2643",
            "nome": "GUSTAVE RIDEAU",
            "morada": "35 rue Marc Verdier 10150 Pont Sainte Marie",
            "telefone": null,
            "telefone2": "07 67 16 76 32",
            "latitude": "48.32550040000000000000",
            "longitude": "4.11377290000000000000",
            "departamento": "10",
            "pertence_nfi": "não",
            "id_utilizador": "2",
            "id_log": "0"
        },
        {
            "id_cliente": "2644",
            "nome": "Laignes Aluminium SARL",
            "morada": "47 grande rue Maison Dieu 21330 Laignes",
            "telefone": "03 80 81 41 12",
            "telefone2": null,
            "latitude": "47.84105210000000000000",
            "longitude": "4.36207620000000000000",
            "departamento": "10",
            "pertence_nfi": "não",
            "id_utilizador": "2",
            "id_log": "0"
        },
        {
            "id_cliente": "2645",
            "nome": "GD Menuiseries",
            "morada": "zone industrielle St Christophe 10500 Saint Léger sous Brienne",
            "telefone": null,
            "telefone2": "03 25 92 78 60",
            "latitude": "48.40386400000000000000",
            "longitude": "4.50260200000000000000",
            "departamento": "10",
            "pertence_nfi": "não",
            "id_utilizador": "2",
            "id_log": "0"
        },
        {
            "id_cliente": "2646",
            "nome": "Gérald Tarin",
            "morada": "1 rue Prieuré 10240 Ramerupt",
            "telefone": "03 25 37 68 05",
            "telefone2": null,
            "latitude": "48.51827319999999600000",
            "longitude": "4.29286410000000000000",
            "departamento": "10",
            "pertence_nfi": "não",
            "id_utilizador": "2",
            "id_log": "0"
        },
        {
            "id_cliente": "2647",
            "nome": "3 Fermetures",
            "morada": "8 rue Joseph Marie Jacquard 10600 La Chapelle Saint Luc",
            "telefone": null,
            "telefone2": "06 89 96 11 04",
            "latitude": "48.31382050000000600000",
            "longitude": "4.02607130000000000000",
            "departamento": "10",
            "pertence_nfi": "não",
            "id_utilizador": "2",
            "id_log": "0"
        },
        {
            "id_cliente": "2648",
            "nome": "Nord Est Fermeture",
            "morada": "rue Nuattes 10220 Piney",
            "telefone": null,
            "telefone2": "03 25 46 31 80",
            "latitude": "48.35806090000000000000",
            "longitude": "4.33464770000000000000",
            "departamento": "10",
            "pertence_nfi": "não",
            "id_utilizador": "2",
            "id_log": "0"
        },
        {
            "id_cliente": "2649",
            "nome": "Ebenisterie De La Sarce",
            "morada": "Beauvoir Sur Sarce 17 rue St Médard Beauvoir Sur Sarce 10340 Bragelogne Beauvoir",
            "telefone": "03 25 29 95 83",
            "telefone2": null,
            "latitude": "47.96539490000000000000",
            "longitude": "4.29966610000000000000",
            "departamento": "10",
            "pertence_nfi": "não",
            "id_utilizador": "2",
            "id_log": "0"
        },
        {
            "id_cliente": "2650",
            "nome": "Alain Leroux EURL",
            "morada": "1 rue Henri Barbusse 10440 La Rivière de Corps",
            "telefone": "06 83 22 02 77",
            "telefone2": null,
            "latitude": "48.28921870000000000000",
            "longitude": "4.03560180000000000000",
            "departamento": "10",
            "pertence_nfi": "não",
            "id_utilizador": "2",
            "id_log": "0"
        },
        {
            "id_cliente": "2651",
            "nome": "Vial Menuiseries",
            "morada": "1 rue Nozeaux 10600 Barberey Saint Sulpice",
            "telefone": null,
            "telefone2": null,
            "latitude": "48.32573520000000000000",
            "longitude": "4.03116860000000000000",
            "departamento": "10",
            "pertence_nfi": "não",
            "id_utilizador": "2",
            "id_log": "0"
        },
        {
            "id_cliente": "2652",
            "nome": "Genin Agencement EURL",
            "morada": "Centre D'affaire Coty 8 avenue Prés Coty 10600 La Chapelle Saint Luc",
            "telefone": null,
            "telefone2": "06 73 65 22 90",
            "latitude": "48.31847390000000000000",
            "longitude": "4.03796640000000000000",
            "departamento": "10",
            "pertence_nfi": "não",
            "id_utilizador": "2",
            "id_log": "0"
        },
        {
            "id_cliente": "2653",
            "nome": "Gedimat Comptoir Général du Bâtiment",
            "morada": "18 boulevard Antoine de St Exupéry 10510 Maizières la Grande Paroisse",
            "telefone": null,
            "telefone2": "03 25 24 63 52",
            "latitude": "48.50386789999999600000",
            "longitude": "3.76233460000000000000",
            "departamento": "10",
            "pertence_nfi": "não",
            "id_utilizador": "2",
            "id_log": "0"
        },
        {
            "id_cliente": "2654",
            "nome": "Crea'b",
            "morada": "14 rue Notre Dame 10700 Champigny sur Aube",
            "telefone": null,
            "telefone2": "06 68 79 56 69",
            "latitude": "48.56147070000000000000",
            "longitude": "4.07216539999999900000",
            "departamento": "10",
            "pertence_nfi": "não",
            "id_utilizador": "2",
            "id_log": "0"
        },
        {
            "id_cliente": "2655",
            "nome": "Champagne Métallerie",
            "morada": "5 rue Tropres 10150 Sainte Maure",
            "telefone": null,
            "telefone2": "03 25 76 00 49",
            "latitude": "48.34069069999999600000",
            "longitude": "4.07654480000000000000",
            "departamento": "10",
            "pertence_nfi": "não",
            "id_utilizador": "2",
            "id_log": "0"
        },
        {
            "id_cliente": "2656",
            "nome": "Eric Regnier",
            "morada": "9 rue Raymond Poincaré 10300 Sainte Savine",
            "telefone": null,
            "telefone2": "06 50 74 64 68",
            "latitude": "48.29182660000000000000",
            "longitude": "4.04737810000000000000",
            "departamento": "10",
            "pertence_nfi": "não",
            "id_utilizador": "2",
            "id_log": "0"
        },
        {
            "id_cliente": "2657",
            "nome": "M. Amancio Gilberto",
            "morada": "19 avenue Joseph Marie Jacquard 10100 Romilly sur Seine",
            "telefone": "06 86 43 24 62",
            "telefone2": null,
            "latitude": "48.50725800000000000000",
            "longitude": "3.70850499999999970000",
            "departamento": "10",
            "pertence_nfi": "não",
            "id_utilizador": "2",
            "id_log": "0"
        },
        {
            "id_cliente": "2658",
            "nome": "Bruno Palvacier",
            "morada": "Maisons Rouges 49 rue Bernon 10130 Chessy les Prés",
            "telefone": null,
            "telefone2": "03 25 80 43 14",
            "latitude": "48.01507650000000000000",
            "longitude": "3.94646699999999930000",
            "departamento": "10",
            "pertence_nfi": "não",
            "id_utilizador": "2",
            "id_log": "0"
        },
        {
            "id_cliente": "2659",
            "nome": "Eurl 2G Menuiserie",
            "morada": "55 rue Thurey 10180 Saint Benoît sur Seine",
            "telefone": null,
            "telefone2": "03 25 78 42 31",
            "latitude": "48.36889110000000000000",
            "longitude": "4.02916060000000000000",
            "departamento": "10",
            "pertence_nfi": "não",
            "id_utilizador": "2",
            "id_log": "0"
        },
        {
            "id_cliente": "2660",
            "nome": "Concept Rénodéco",
            "morada": "Za Des Grevottes 3 route Verrières 10450 Bréviandes",
            "telefone": "09 64 28 47 11",
            "telefone2": null,
            "latitude": "48.26350260000000000000",
            "longitude": "4.11119970000000100000",
            "departamento": "10",
            "pertence_nfi": "não",
            "id_utilizador": "2",
            "id_log": "0"
        },
        {
            "id_cliente": "2661",
            "nome": "Menuiserie Et Ebénisterie La Charme",
            "morada": "1 rue Coopérative 10800 Saint Julien les Villas",
            "telefone": null,
            "telefone2": "06 10 28 66 83",
            "latitude": "48.26866099999999400000",
            "longitude": "4.09317149999999950000",
            "departamento": "10",
            "pertence_nfi": "não",
            "id_utilizador": "2",
            "id_log": "0"
        },
        {
            "id_cliente": "2662",
            "nome": "Mister Menuiserie",
            "morada": "13 rue Robert Keller 10150 Pont Sainte Marie",
            "telefone": null,
            "telefone2": "03 25 70 51 59",
            "latitude": "48.32580100000000600000",
            "longitude": "4.11081600000000000000",
            "departamento": "10",
            "pertence_nfi": "não",
            "id_utilizador": "2",
            "id_log": "0"
        },
        {
            "id_cliente": "2663",
            "nome": "EURL BEAU-MASSON",
            "morada": "29 rue République 10510 Origny le Sec",
            "telefone": null,
            "telefone2": "03 25 24 74 82",
            "latitude": "48.46347009999999500000",
            "longitude": "3.77249500000000000000",
            "departamento": "10",
            "pertence_nfi": "não",
            "id_utilizador": "2",
            "id_log": "0"
        },
        {
            "id_cliente": "2664",
            "nome": "Pac Damas SARL",
            "morada": "chaussée Sellières 10100 Romilly sur Seine",
            "telefone": null,
            "telefone2": "03 25 39 52 10",
            "latitude": "48.52023390000000000000",
            "longitude": "3.70629180000000000000",
            "departamento": "10",
            "pertence_nfi": "não",
            "id_utilizador": "2",
            "id_log": "0"
        },
        {
            "id_cliente": "2665",
            "nome": "Agencement Garcia",
            "morada": "10 rue Victor Hugo 10430 Rosières près Troyes",
            "telefone": "03 25 82 48 61",
            "telefone2": null,
            "latitude": "48.26313510000000000000",
            "longitude": "4.07320070000000000000",
            "departamento": "10",
            "pertence_nfi": "não",
            "id_utilizador": "2",
            "id_log": "0"
        },
        {
            "id_cliente": "2666",
            "nome": "Secabat",
            "morada": "Zone Industrielle Pres De Lyon 24 rue Jean Baptiste Colbert 10600 La Chapelle Saint Luc",
            "telefone": null,
            "telefone2": "03 25 71 04 91",
            "latitude": "48.31290610000000000000",
            "longitude": "4.02348630000000000000",
            "departamento": "10",
            "pertence_nfi": "não",
            "id_utilizador": "2",
            "id_log": "0"
        },
        {
            "id_cliente": "2667",
            "nome": "ADF Métal",
            "morada": "8 rue Maurice Jouffrieau 10190 Neuville sur Vanne",
            "telefone": "03 25 46 19 97",
            "telefone2": null,
            "latitude": "48.26249100000000000000",
            "longitude": "3.78440000000000000000",
            "departamento": "10",
            "pertence_nfi": "não",
            "id_utilizador": "2",
            "id_log": "0"
        },
        {
            "id_cliente": "2668",
            "nome": "LTD Rénovation",
            "morada": "10 rue Haute Charme 10000 Troyes",
            "telefone": null,
            "telefone2": "03 25 74 23 02",
            "latitude": "48.30997780000000000000",
            "longitude": "4.05865799999999900000",
            "departamento": "10",
            "pertence_nfi": "não",
            "id_utilizador": "2",
            "id_log": "0"
        },
        {
            "id_cliente": "2669",
            "nome": "MILLEZ FRANCK",
            "morada": "bât Franck Millez 8 route Soissons 10170 Etrelles sur Aube",
            "telefone": null,
            "telefone2": "03 25 21 20 72",
            "latitude": "48.56051580000000000000",
            "longitude": "3.87013950000000000000",
            "departamento": "10",
            "pertence_nfi": "não",
            "id_utilizador": "2",
            "id_log": "0"
        },
        {
            "id_cliente": "2670",
            "nome": "ILHAN AHMET",
            "morada": "6 rue Ardusson 10400 Nogent sur Seine",
            "telefone": null,
            "telefone2": "06 99 70 99 44",
            "latitude": "48.49082370000000000000",
            "longitude": "3.51692540000000000000",
            "departamento": "10",
            "pertence_nfi": "não",
            "id_utilizador": "2",
            "id_log": "0"
        },
        {
            "id_cliente": "2671",
            "nome": "M2TC",
            "morada": "4 rue Vignes 10190 Estissac",
            "telefone": null,
            "telefone2": "06 61 53 88 48",
            "latitude": "48.25939659999999500000",
            "longitude": "3.81414370000000000000",
            "departamento": "10",
            "pertence_nfi": "não",
            "id_utilizador": "2",
            "id_log": "0"
        },
        {
            "id_cliente": "2672",
            "nome": "BMA Fermetures",
            "morada": "53 rue Vallée de la Seine 10390 Clérey",
            "telefone": "06 64 36 18 28",
            "telefone2": null,
            "latitude": "48.20989810000000000000",
            "longitude": "4.18262780000000000000",
            "departamento": "10",
            "pertence_nfi": "não",
            "id_utilizador": "2",
            "id_log": "0"
        },
        {
            "id_cliente": "2673",
            "nome": "Aube Concept Menuiserie",
            "morada": "23 rue Jean Jaurès 10450 Bréviandes",
            "telefone": null,
            "telefone2": "06 50 94 67 33",
            "latitude": "48.25838230000000000000",
            "longitude": "4.10504870000000000000",
            "departamento": "10",
            "pertence_nfi": "não",
            "id_utilizador": "2",
            "id_log": "0"
        },
        {
            "id_cliente": "2674",
            "nome": "Breviandes Isolation Menuiserie",
            "morada": "9 Bis chemin Patures 10450 Bréviandes",
            "telefone": null,
            "telefone2": "06 88 35 01 50",
            "latitude": "48.25771059999999600000",
            "longitude": "4.08878209999999950000",
            "departamento": "10",
            "pertence_nfi": "não",
            "id_utilizador": "2",
            "id_log": "0"
        },
        {
            "id_cliente": "2675",
            "nome": "Duf Menuiserie",
            "morada": "5 zone artisanale Barbes D'Or 10260 Saint Parres lès Vaudes",
            "telefone": null,
            "telefone2": "03 25 40 90 06",
            "latitude": "48.17532170000000000000",
            "longitude": "4.20513050000000000000",
            "departamento": "10",
            "pertence_nfi": "não",
            "id_utilizador": "2",
            "id_log": "0"
        },
        {
            "id_cliente": "2676",
            "nome": "D.M.G. Menuiserie",
            "morada": "36 rue Maurice Bouchor 10000 Troyes",
            "telefone": null,
            "telefone2": "07 67 35 63 31",
            "latitude": "48.30391450000000000000",
            "longitude": "4.04927299999999950000",
            "departamento": "10",
            "pertence_nfi": "não",
            "id_utilizador": "2",
            "id_log": "0"
        },
        {
            "id_cliente": "2677",
            "nome": "Nord Est Fermeture",
            "morada": "Nord Est Fermeture Sarl 6 rue Nuattes 10220 Piney",
            "telefone": null,
            "telefone2": "03 25 46 31 80",
            "latitude": "48.36310570000000000000",
            "longitude": "4.33127180000000000000",
            "departamento": "10",
            "pertence_nfi": "não",
            "id_utilizador": "2",
            "id_log": "0"
        },
        {
            "id_cliente": "2678",
            "nome": "Galley Jean-luc",
            "morada": "13 rue Haute 10110 Landreville",
            "telefone": null,
            "telefone2": "03 25 38 50 46",
            "latitude": "48.07206950000000000000",
            "longitude": "4.47470470000000000000",
            "departamento": "10",
            "pertence_nfi": "não",
            "id_utilizador": "2",
            "id_log": "0"
        },
        {
            "id_cliente": "2679",
            "nome": "France Volet Intex",
            "morada": "St Christophe, 10500 Saint Christophe Dodinicourt",
            "telefone": null,
            "telefone2": "03 25 92 50 81",
            "latitude": "48.43905499999999600000",
            "longitude": "4.47002500000000000000",
            "departamento": "10",
            "pertence_nfi": "não",
            "id_utilizador": "2",
            "id_log": "0"
        },
        {
            "id_cliente": "2680",
            "nome": "Jean-Sébastien Bailly",
            "morada": "12 rue Terreau Villemaur Sur Vanne 10190 Aix Villemaur Pâlis",
            "telefone": null,
            "telefone2": "03 25 40 19 16",
            "latitude": "48.25488110000000000000",
            "longitude": "3.72850650000000040000",
            "departamento": "10",
            "pertence_nfi": "não",
            "id_utilizador": "2",
            "id_log": "0"
        },
        {
            "id_cliente": "2681",
            "nome": "Alliance Menuiserie",
            "morada": "13 impasse Jean Jaurès 10800 Saint Julien les Villas",
            "telefone": null,
            "telefone2": "06 98 74 03 15",
            "latitude": "48.27700030000000000000",
            "longitude": "4.09149010000000000000",
            "departamento": "10",
            "pertence_nfi": "não",
            "id_utilizador": "2",
            "id_log": "0"
        },
        {
            "id_cliente": "2682",
            "nome": "Menuisierie d'Antan SARL",
            "morada": "chemin Vaches 10140 La Loge aux Chèvres",
            "telefone": "03 25 41 40 69",
            "telefone2": null,
            "latitude": "48.27135399999999500000",
            "longitude": "4.41252100000000000000",
            "departamento": "10",
            "pertence_nfi": "não",
            "id_utilizador": "2",
            "id_log": "0"
        },
        {
            "id_cliente": "2683",
            "nome": "Mrt Créations - Menuisier ébéniste",
            "morada": "55 rue Drisson 10330 Joncreuil",
            "telefone": null,
            "telefone2": "06 81 00 61 24",
            "latitude": "48.52102000000001000000",
            "longitude": "4.61642100000000000000",
            "departamento": "10",
            "pertence_nfi": "não",
            "id_utilizador": "2",
            "id_log": "0"
        },
        {
            "id_cliente": "2684",
            "nome": "Dominique Baty SARL",
            "morada": "2 rue Pic Drille 10150 Charmont sous Barbuise",
            "telefone": "03 25 41 05 80",
            "telefone2": null,
            "latitude": "48.41033700000000000000",
            "longitude": "4.17342609999999950000",
            "departamento": "10",
            "pertence_nfi": "não",
            "id_utilizador": "2",
            "id_log": "0"
        },
        {
            "id_cliente": "2685",
            "nome": "Techni Stores Fermetures",
            "morada": "1 Bis rue Louis Desprez 10200 Bar sur Aube",
            "telefone": null,
            "telefone2": "06 13 24 66 26",
            "latitude": "48.22916730000000000000",
            "longitude": "4.71553110000000000000",
            "departamento": "10",
            "pertence_nfi": "não",
            "id_utilizador": "2",
            "id_log": "0"
        },
        {
            "id_cliente": "2686",
            "nome": "Maillard Menuiserie",
            "morada": "Route de Pars-Les-Chavanges 5 chemin Perlatte 10330 Montmorency Beaufort",
            "telefone": "03 25 27 72 98",
            "telefone2": null,
            "latitude": "48.48701819999999400000",
            "longitude": "4.55692510000000000000",
            "departamento": "10",
            "pertence_nfi": "não",
            "id_utilizador": "2",
            "id_log": "0"
        },
        {
            "id_cliente": "2687",
            "nome": "Gilles Rozoy",
            "morada": "14 rue Noue 10700 Lhuître",
            "telefone": null,
            "telefone2": "03 25 37 06 19",
            "latitude": "48.56498269999999500000",
            "longitude": "4.25770570000000000000",
            "departamento": "10",
            "pertence_nfi": "não",
            "id_utilizador": "2",
            "id_log": "0"
        },
        {
            "id_cliente": "2688",
            "nome": "Totem Menuiserie",
            "morada": "28 rue Marmoret 10220 Brévonnes",
            "telefone": null,
            "telefone2": "03 25 46 30 11",
            "latitude": "48.34470260000000000000",
            "longitude": "4.40547250000000000000",
            "departamento": "10",
            "pertence_nfi": "não",
            "id_utilizador": "2",
            "id_log": "0"
        },
        {
            "id_cliente": "2689",
            "nome": "Tradi-Métal",
            "morada": "Lieu Dit La Gueule Des Vots route Riceys 10250 Gyé sur Seine",
            "telefone": "03 25 29 97 64",
            "telefone2": null,
            "latitude": "48.02758980000000000000",
            "longitude": "4.41857160000000000000",
            "departamento": "10",
            "pertence_nfi": "não",
            "id_utilizador": "2",
            "id_log": "0"
        },
        {
            "id_cliente": "2690",
            "nome": "Hussenet 2000",
            "morada": "5 Bis chemin Prés Baudouin 10800 Saint Léger près Troyes",
            "telefone": "03 25 43 92 74",
            "telefone2": null,
            "latitude": "48.23755800000000000000",
            "longitude": "4.07562700000000000000",
            "departamento": "10",
            "pertence_nfi": "não",
            "id_utilizador": "2",
            "id_log": "0"
        },
        {
            "id_cliente": "2691",
            "nome": "Maria Domingos",
            "morada": "18 rue Jean Nesmy 10000 Troyes",
            "telefone": null,
            "telefone2": "06 68 67 76 05",
            "latitude": "48.29440190000000000000",
            "longitude": "4.08983870000000000000",
            "departamento": "10",
            "pertence_nfi": "não",
            "id_utilizador": "2",
            "id_log": "0"
        },
        {
            "id_cliente": "2692",
            "nome": "Jim Création",
            "morada": "4 rue Haut Viapres le Grand 10380 Plancy l'Abbaye",
            "telefone": null,
            "telefone2": "06 19 97 77 01",
            "latitude": "48.56634200000000000000",
            "longitude": "4.02224100000000000000",
            "departamento": "10",
            "pertence_nfi": "não",
            "id_utilizador": "2",
            "id_log": "0"
        },
        {
            "id_cliente": "2693",
            "nome": "Sébastien Braux",
            "morada": "4 chemin Courtois 10800 Cormost",
            "telefone": null,
            "telefone2": "06 76 20 17 97",
            "latitude": "48.16821400000000000000",
            "longitude": "4.13508400000000000000",
            "departamento": "10",
            "pertence_nfi": "não",
            "id_utilizador": "2",
            "id_log": "0"
        },
        {
            "id_cliente": "2694",
            "nome": "Thierry Hazouard",
            "morada": "7 rue Moulin 10350 Saint Flavy",
            "telefone": "03 25 21 59 67",
            "telefone2": null,
            "latitude": "48.40364899999999400000",
            "longitude": "3.75461500000000000000",
            "departamento": "10",
            "pertence_nfi": "não",
            "id_utilizador": "2",
            "id_log": "0"
        },
        {
            "id_cliente": "2695",
            "nome": "C-a-t Menois Centre d'Aide par le Travail",
            "morada": "1 route Baires 10800 Rouilly Saint Loup",
            "telefone": null,
            "telefone2": "03 25 76 27 00",
            "latitude": "48.27615750000000000000",
            "longitude": "4.12882710000000000000",
            "departamento": "10",
            "pertence_nfi": "não",
            "id_utilizador": "2",
            "id_log": "0"
        },
        {
            "id_cliente": "2696",
            "nome": "Presta Métal Pita Vieira",
            "morada": "9 rue Jules Ferry 10400 Nogent sur Seine",
            "telefone": null,
            "telefone2": "03 25 39 87 75",
            "latitude": "48.48767700000000000000",
            "longitude": "3.49805900000000000000",
            "departamento": "10",
            "pertence_nfi": "não",
            "id_utilizador": "2",
            "id_log": "0"
        },
        {
            "id_cliente": "2697",
            "nome": "Cmd2",
            "morada": "Zone Industrielle r George Noel, 10190 Estissac",
            "telefone": null,
            "telefone2": "03 25 40 62 56",
            "latitude": "48.27413130000000000000",
            "longitude": "3.79920970000000000000",
            "departamento": "10",
            "pertence_nfi": "não",
            "id_utilizador": "2",
            "id_log": "0"
        },
        {
            "id_cliente": "2698",
            "nome": "David Tapprest",
            "morada": "102 Bis boulevard Jules Guesde 10000 Troyes",
            "telefone": null,
            "telefone2": "07 61 61 04 50",
            "latitude": "48.28284890000000000000",
            "longitude": "4.08426880000000000000",
            "departamento": "10",
            "pertence_nfi": "não",
            "id_utilizador": "2",
            "id_log": "0"
        },
        {
            "id_cliente": "2699",
            "nome": "METALLERIE DES LACS SARL",
            "morada": "30 rue Capit Cote 10270 Courteranges",
            "telefone": null,
            "telefone2": "03 25 41 29 91",
            "latitude": "48.26529890000000500000",
            "longitude": "4.23302770000000000000",
            "departamento": "10",
            "pertence_nfi": "não",
            "id_utilizador": "2",
            "id_log": "0"
        },
        {
            "id_cliente": "2700",
            "nome": "RM Bâti Rénov",
            "morada": "50 rue Louis Blanc 10300 Sainte Savine",
            "telefone": null,
            "telefone2": "07 82 67 97 44",
            "latitude": "48.29679150000000000000",
            "longitude": "4.05203960000000000000",
            "departamento": "10",
            "pertence_nfi": "não",
            "id_utilizador": "2",
            "id_log": "0"
        },
        {
            "id_cliente": "2701",
            "nome": "Franck Burrel Intervention",
            "morada": "27 Bis rue Bas 10130 Chamoy",
            "telefone": "06 75 50 63 69",
            "telefone2": null,
            "latitude": "48.11479480000000000000",
            "longitude": "3.97907649999999970000",
            "departamento": "10",
            "pertence_nfi": "não",
            "id_utilizador": "2",
            "id_log": "0"
        },
        {
            "id_cliente": "2702",
            "nome": "Serge Siri",
            "morada": "1 Bis route Juzanvigny 10500 Brienne le Château",
            "telefone": null,
            "telefone2": "06 09 83 76 46",
            "latitude": "48.39758169999999600000",
            "longitude": "4.53321130000000000000",
            "departamento": "10",
            "pertence_nfi": "não",
            "id_utilizador": "2",
            "id_log": "0"
        },
        {
            "id_cliente": "2703",
            "nome": "Philippe Saguet",
            "morada": "bât Saquet Agencement Me 14 rue Ancien Moulin 10200 Bergères",
            "telefone": null,
            "telefone2": "03 25 92 76 18",
            "latitude": "48.18541700000000000000",
            "longitude": "4.66554890000000000000",
            "departamento": "10",
            "pertence_nfi": "não",
            "id_utilizador": "2",
            "id_log": "0"
        },
        {
            "id_cliente": "2704",
            "nome": "Doré SARL",
            "morada": "19 rue Mar de Beurnonville 10200 Champignol lez Mondeville",
            "telefone": "03 25 27 42 49",
            "telefone2": null,
            "latitude": "48.14021299999999600000",
            "longitude": "4.67474600000000000000",
            "departamento": "10",
            "pertence_nfi": "não",
            "id_utilizador": "2",
            "id_log": "0"
        },
        {
            "id_cliente": "2705",
            "nome": "Portec Industry",
            "morada": "zone artisanale Plants 10220 Piney",
            "telefone": null,
            "telefone2": "03 25 46 43 00",
            "latitude": "48.36543380000000000000",
            "longitude": "4.32449620000000000000",
            "departamento": "10",
            "pertence_nfi": "não",
            "id_utilizador": "2",
            "id_log": "0"
        },
        {
            "id_cliente": "2706",
            "nome": "B.O. MULTISERVICES",
            "morada": "14 rue Libération 10270 Montaulin",
            "telefone": null,
            "telefone2": "03 25 43 81 76",
            "latitude": "48.24432210000000000000",
            "longitude": "4.17919859999999900000",
            "departamento": "10",
            "pertence_nfi": "não",
            "id_utilizador": "2",
            "id_log": "0"
        },
        {
            "id_cliente": "2707",
            "nome": "FRANCE VOLET",
            "morada": "40 Brienne, 10700 Arcis sur Aube",
            "telefone": null,
            "telefone2": "03 25 37 13 13",
            "latitude": "48.53352419999999500000",
            "longitude": "4.15753460000000000000",
            "departamento": "10",
            "pertence_nfi": "não",
            "id_utilizador": "2",
            "id_log": "0"
        },
        {
            "id_cliente": "2708",
            "nome": "Drouot Innovation",
            "morada": "zone industrielle St Léger 10500 SAINT LEGER SOUS BRIENNE",
            "telefone": null,
            "telefone2": "03 25 92 82 78",
            "latitude": "48.39892500000000000000",
            "longitude": "4.51641210000000000000",
            "departamento": "10",
            "pertence_nfi": "não",
            "id_utilizador": "2",
            "id_log": "0"
        },
        {
            "id_cliente": "2709",
            "nome": "David Dauvet",
            "morada": "bât Menuiserie David Dau rue Motte 10170 Méry sur Seine",
            "telefone": null,
            "telefone2": "03 25 39 17 66",
            "latitude": "48.51456800000000000000",
            "longitude": "3.90580010000000000000",
            "departamento": "10",
            "pertence_nfi": "não",
            "id_utilizador": "2",
            "id_log": "0"
        },
        {
            "id_cliente": "2710",
            "nome": "Loyer Menuiserie SARL",
            "morada": "11 rue Maraîchers 10120 Saint André les Vergers",
            "telefone": null,
            "telefone2": "03 25 80 80 17",
            "latitude": "48.26800350000000000000",
            "longitude": "4.04341450000000000000",
            "departamento": "10",
            "pertence_nfi": "não",
            "id_utilizador": "2",
            "id_log": "0"
        },
        {
            "id_cliente": "2711",
            "nome": "Hugot Menuiserie",
            "morada": "14 rue Georges Furier 10260 Saint Parres lès Vaudes",
            "telefone": "06 14 59 46 45",
            "telefone2": null,
            "latitude": "48.17154690000000000000",
            "longitude": "4.21644970000000000000",
            "departamento": "10",
            "pertence_nfi": "não",
            "id_utilizador": "2",
            "id_log": "0"
        },
        {
            "id_cliente": "2712",
            "nome": "Olivier Collot",
            "morada": "33 Grande Rue, 10260 Vaudes",
            "telefone": null,
            "telefone2": "03 25 43 12 72",
            "latitude": "48.17685940000000000000",
            "longitude": "4.19026640000000000000",
            "departamento": "10",
            "pertence_nfi": "não",
            "id_utilizador": "2",
            "id_log": "0"
        },
        {
            "id_cliente": "2713",
            "nome": "Lambert Menuiserie",
            "morada": "9 rue Gustave Eiffel 10120 Saint André les Vergers",
            "telefone": null,
            "telefone2": null,
            "latitude": "48.27243680000000000000",
            "longitude": "4.05029599999999950000",
            "departamento": "10",
            "pertence_nfi": "não",
            "id_utilizador": "2",
            "id_log": "0"
        },
        {
            "id_cliente": "2714",
            "nome": "RB Réalisation",
            "morada": "177 Bis rue Preize 10000 Troyes",
            "telefone": null,
            "telefone2": "03 25 78 35 08",
            "latitude": "48.31262640000000000000",
            "longitude": "4.06284870000000000000",
            "departamento": "10",
            "pertence_nfi": "não",
            "id_utilizador": "2",
            "id_log": "0"
        },
        {
            "id_cliente": "2715",
            "nome": "Fabrice Di Masso",
            "morada": "11 rue Gén de Gaulle 10500 Lesmont",
            "telefone": null,
            "telefone2": "03 25 92 18 49",
            "latitude": "48.42805480000000000000",
            "longitude": "4.41507950000000000000",
            "departamento": "10",
            "pertence_nfi": "não",
            "id_utilizador": "2",
            "id_log": "0"
        },
        {
            "id_cliente": "2716",
            "nome": "Bois 2000",
            "morada": "rue Marmoret 10220 Brévonnes",
            "telefone": null,
            "telefone2": "03 25 46 41 29",
            "latitude": "48.34793370000000000000",
            "longitude": "4.40252680000000000000",
            "departamento": "10",
            "pertence_nfi": "não",
            "id_utilizador": "2",
            "id_log": "0"
        },
        {
            "id_cliente": "2717",
            "nome": "Beaugrand Habitat",
            "morada": "10 rue Paul Cézanne 10120 Saint Germain",
            "telefone": null,
            "telefone2": "03 25 75 61 15",
            "latitude": "48.25470490000000000000",
            "longitude": "4.02891360000000000000",
            "departamento": "10",
            "pertence_nfi": "não",
            "id_utilizador": "2",
            "id_log": "0"
        },
        {
            "id_cliente": "2718",
            "nome": "Construction Bois Brut De Chaourse SARL",
            "morada": "hameau Petites Loges 10210 Chaource",
            "telefone": null,
            "telefone2": "03 25 73 90 58",
            "latitude": "48.08086080000000000000",
            "longitude": "4.11687080000000000000",
            "departamento": "10",
            "pertence_nfi": "não",
            "id_utilizador": "2",
            "id_log": "0"
        },
        {
            "id_cliente": "2719",
            "nome": "Milot",
            "morada": "4 rue Grande 10330 Jasseines",
            "telefone": null,
            "telefone2": "03 25 37 41 37",
            "latitude": "48.50134399999999600000",
            "longitude": "4.38399999999999950000",
            "departamento": "10",
            "pertence_nfi": "não",
            "id_utilizador": "2",
            "id_log": "0"
        },
        {
            "id_cliente": "2720",
            "nome": "MENUISERIE AGENCEMENT SARL",
            "morada": "258 avenue Gén Leclerc 10300 Sainte Savine",
            "telefone": null,
            "telefone2": "06 09 31 66 01",
            "latitude": "48.28985240000000000000",
            "longitude": "4.00455270000000000000",
            "departamento": "10",
            "pertence_nfi": "não",
            "id_utilizador": "2",
            "id_log": "0"
        },
        {
            "id_cliente": "2721",
            "nome": "Olivier Passier",
            "morada": "bât Eirl Passier 7 rue Nationale 10100 Pars lès Romilly",
            "telefone": null,
            "telefone2": "03 25 25 23 08",
            "latitude": "48.49161900000000000000",
            "longitude": "3.73242899999999980000",
            "departamento": "10",
            "pertence_nfi": "não",
            "id_utilizador": "2",
            "id_log": "0"
        },
        {
            "id_cliente": "2722",
            "nome": "Entreprise ipek",
            "morada": "20 A rue Lachat 10000 Troyes",
            "telefone": null,
            "telefone2": "06 15 69 76 58",
            "latitude": "48.29151890000000000000",
            "longitude": "4.06326010000000000000",
            "departamento": "10",
            "pertence_nfi": "não",
            "id_utilizador": "2",
            "id_log": "0"
        },
        {
            "id_cliente": "2723",
            "nome": "MAFM",
            "morada": "2 rue Bergerie 10340 Avirey Lingey",
            "telefone": null,
            "telefone2": "03 25 29 14 83",
            "latitude": "48.02501110000000000000",
            "longitude": "4.30333429999999950000",
            "departamento": "10",
            "pertence_nfi": "não",
            "id_utilizador": "2",
            "id_log": "0"
        },
        {
            "id_cliente": "2724",
            "nome": "Francis Guyon",
            "morada": "33 rue Paul Doumer 10300 Sainte Savine",
            "telefone": null,
            "telefone2": "03 25 74 95 01",
            "latitude": "48.29080460000000000000",
            "longitude": "4.05705010000000000000",
            "departamento": "10",
            "pertence_nfi": "não",
            "id_utilizador": "2",
            "id_log": "0"
        },
        {
            "id_cliente": "2725",
            "nome": "Jérôme Frisch",
            "morada": "61 avenue Paul Girard 10500 Dienville",
            "telefone": null,
            "telefone2": "06 62 31 47 76",
            "latitude": "48.34724620000001000000",
            "longitude": "4.53777000000000100000",
            "departamento": "10",
            "pertence_nfi": "não",
            "id_utilizador": "2",
            "id_log": "0"
        },
        {
            "id_cliente": "2726",
            "nome": "Menuiserie Cordier Thierry",
            "morada": "22 rue Libération 10270 Montaulin",
            "telefone": null,
            "telefone2": "03 25 43 94 43",
            "latitude": "48.24396850000000000000",
            "longitude": "4.17734160000000000000",
            "departamento": "10",
            "pertence_nfi": "não",
            "id_utilizador": "2",
            "id_log": "0"
        },
        {
            "id_cliente": "2727",
            "nome": "Christian Germaine",
            "morada": "4 impasse Comte 10120 Saint André les Vergers",
            "telefone": null,
            "telefone2": "06 85 08 30 75",
            "latitude": "48.27147189999999500000",
            "longitude": "4.03728150000000000000",
            "departamento": "10",
            "pertence_nfi": "não",
            "id_utilizador": "2",
            "id_log": "0"
        },
        {
            "id_cliente": "2728",
            "nome": "Régis Rozoy",
            "morada": "21 Grande Rue, 10240 Vaucogne",
            "telefone": null,
            "telefone2": "03 25 37 66 61",
            "latitude": "48.52760300000000600000",
            "longitude": "4.34408990000000000000",
            "departamento": "10",
            "pertence_nfi": "não",
            "id_utilizador": "2",
            "id_log": "0"
        },
        {
            "id_cliente": "2729",
            "nome": "Métallerie Vaudoise SARL",
            "morada": "2 rue Violettes 10260 Saint Parres lès Vaudes",
            "telefone": "03 25 40 92 62",
            "telefone2": null,
            "latitude": "48.17225889999999600000",
            "longitude": "4.21043300000000000000",
            "departamento": "10",
            "pertence_nfi": "não",
            "id_utilizador": "2",
            "id_log": "0"
        },
        {
            "id_cliente": "2730",
            "nome": "QB RENOVATION",
            "morada": "13 rue Petites Charmiselles 10800 Saint Thibault",
            "telefone": null,
            "telefone2": "06 58 64 91 37",
            "latitude": "48.20020009999999600000",
            "longitude": "4.14227410000000000000",
            "departamento": "10",
            "pertence_nfi": "não",
            "id_utilizador": "2",
            "id_log": "0"
        },
        {
            "id_cliente": "2731",
            "nome": "Michaël Milley",
            "morada": "6 La Belle Etoile, Bis, 10170 Mesgrigny",
            "telefone": null,
            "telefone2": "03 25 39 51 16",
            "latitude": "48.47609380000000000000",
            "longitude": "3.87232599999999970000",
            "departamento": "10",
            "pertence_nfi": "não",
            "id_utilizador": "2",
            "id_log": "0"
        },
        {
            "id_cliente": "2732",
            "nome": "Lafira",
            "morada": "74 rue N-D des Prés 10120 Saint André les Vergers",
            "telefone": null,
            "telefone2": "03 25 45 80 20",
            "latitude": "48.28768309999999500000",
            "longitude": "4.04555659999999900000",
            "departamento": "10",
            "pertence_nfi": "não",
            "id_utilizador": "2",
            "id_log": "0"
        },
        {
            "id_cliente": "2733",
            "nome": "Armand Stapf",
            "morada": "36 avenue Mar Leclerc 10450 Bréviandes",
            "telefone": null,
            "telefone2": "06 72 74 54 79",
            "latitude": "48.26180989999999600000",
            "longitude": "4.09264200000000000000",
            "departamento": "10",
            "pertence_nfi": "não",
            "id_utilizador": "2",
            "id_log": "0"
        },
        {
            "id_cliente": "2734",
            "nome": "François Wertz",
            "morada": "9 les Langots, 10160 Bérulle",
            "telefone": null,
            "telefone2": "06 33 69 52 89",
            "latitude": "48.14668710000000000000",
            "longitude": "3.66537739999999920000",
            "departamento": "10",
            "pertence_nfi": "não",
            "id_utilizador": "2",
            "id_log": "0"
        },
        {
            "id_cliente": "2735",
            "nome": "Grégory Poinsot",
            "morada": "20 rue Pré Naudet 10270 Lusigny sur Barse",
            "telefone": null,
            "telefone2": "09 73 18 16 62",
            "latitude": "48.25818990000000000000",
            "longitude": "4.26336130000000000000",
            "departamento": "10",
            "pertence_nfi": "não",
            "id_utilizador": "2",
            "id_log": "0"
        },
        {
            "id_cliente": "2736",
            "nome": "Philippe Tisseront",
            "morada": "5 rue Croix Rouge 10120 Saint André les Vergers",
            "telefone": null,
            "telefone2": "06 81 77 29 08",
            "latitude": "48.27339420000000000000",
            "longitude": "4.05920350000000000000",
            "departamento": "10",
            "pertence_nfi": "não",
            "id_utilizador": "2",
            "id_log": "0"
        },
        {
            "id_cliente": "2737",
            "nome": "Champagne Menuiserie SARL",
            "morada": "7 rue Forêt Champigny 10270 Laubressel",
            "telefone": null,
            "telefone2": "03 25 80 03 21",
            "latitude": "48.30324479999999500000",
            "longitude": "4.24108270000000000000",
            "departamento": "10",
            "pertence_nfi": "não",
            "id_utilizador": "2",
            "id_log": "0"
        },
        {
            "id_cliente": "2738",
            "nome": "Jean-Luc Vincent",
            "morada": "5 Bis rue Costel Laurent 10190 Estissac",
            "telefone": null,
            "telefone2": "06 23 17 75 44",
            "latitude": "48.26690100000000000000",
            "longitude": "3.81213400000000000000",
            "departamento": "10",
            "pertence_nfi": "não",
            "id_utilizador": "2",
            "id_log": "0"
        },
        {
            "id_cliente": "2739",
            "nome": "AUTOMADIS",
            "morada": "18 rue Garenne 10280 Saint Mesmin",
            "telefone": null,
            "telefone2": "07 86 15 35 79",
            "latitude": "48.44283189999999500000",
            "longitude": "3.92270799999999960000",
            "departamento": "10",
            "pertence_nfi": "não",
            "id_utilizador": "2",
            "id_log": "0"
        },
        {
            "id_cliente": "2740",
            "nome": "Kohler France",
            "morada": "rue André Malraux 10000 Troyes",
            "telefone": null,
            "telefone2": "03 25 76 98 68",
            "latitude": "48.30976330000000000000",
            "longitude": "4.08054600000000000000",
            "departamento": "10",
            "pertence_nfi": "não",
            "id_utilizador": "2",
            "id_log": "0"
        },
        {
            "id_cliente": "2741",
            "nome": "Jobé Thierry",
            "morada": "23 Grande Rue, 10140 Jessains",
            "telefone": null,
            "telefone2": "07 86 02 21 49",
            "latitude": "48.29487779999999500000",
            "longitude": "4.57842340000000000000",
            "departamento": "10",
            "pertence_nfi": "não",
            "id_utilizador": "2",
            "id_log": "0"
        },
        {
            "id_cliente": "2742",
            "nome": "Menuiserie Trinh",
            "morada": "8 avenue Prés Coty 10600 La Chapelle Saint Luc",
            "telefone": null,
            "telefone2": "06 19 03 29 33",
            "latitude": "48.31780130000000000000",
            "longitude": "4.03877130000000000000",
            "departamento": "10",
            "pertence_nfi": "não",
            "id_utilizador": "2",
            "id_log": "0"
        },
        {
            "id_cliente": "2743",
            "nome": "AMVS",
            "morada": "7 rue Violettes 10150 Lavau",
            "telefone": null,
            "telefone2": null,
            "latitude": "48.33493389999999600000",
            "longitude": "4.08488700000000000000",
            "departamento": "10",
            "pertence_nfi": "não",
            "id_utilizador": "2",
            "id_log": "0"
        },
        {
            "id_cliente": "2744",
            "nome": "Atelier Cox",
            "morada": "200 rue Perrière 10320 Souligny",
            "telefone": null,
            "telefone2": "03 25 40 33 02",
            "latitude": "48.20616099999999400000",
            "longitude": "3.99250869999999970000",
            "departamento": "10",
            "pertence_nfi": "não",
            "id_utilizador": "2",
            "id_log": "0"
        },
        {
            "id_cliente": "2745",
            "nome": "Patrick Deheurles",
            "morada": "5 rue Côteaux 10390 Verrières",
            "telefone": null,
            "telefone2": "06 99 25 75 95",
            "latitude": "48.24232710000000000000",
            "longitude": "4.15037840000000000000",
            "departamento": "10",
            "pertence_nfi": "não",
            "id_utilizador": "2",
            "id_log": "0"
        },
        {
            "id_cliente": "2746",
            "nome": "Sabine Ruffenach",
            "morada": "Le Haut Chemin, 10260 Vaudes",
            "telefone": null,
            "telefone2": "03 25 40 92 85",
            "latitude": "48.18102690000000000000",
            "longitude": "4.18657030000000000000",
            "departamento": "10",
            "pertence_nfi": "não",
            "id_utilizador": "2",
            "id_log": "0"
        },
        {
            "id_cliente": "2747",
            "nome": "Serralunga Valentin",
            "morada": "23 rue Noues 10270 Courteranges",
            "telefone": null,
            "telefone2": "06 60 91 65 91",
            "latitude": "48.26742700000000000000",
            "longitude": "4.24275199999999900000",
            "departamento": "10",
            "pertence_nfi": "não",
            "id_utilizador": "2",
            "id_log": "0"
        },
        {
            "id_cliente": "2748",
            "nome": "Menui Pose",
            "morada": "12 rue Pasteur 10510 Maizières la Grande Paroisse",
            "telefone": null,
            "telefone2": "06 68 91 85 48",
            "latitude": "48.51123180000000000000",
            "longitude": "3.78878000000000000000",
            "departamento": "10",
            "pertence_nfi": "não",
            "id_utilizador": "2",
            "id_log": "0"
        },
        {
            "id_cliente": "2749",
            "nome": "Gaël Andrist",
            "morada": "1 chemin Grenouilles 10210 Turgy",
            "telefone": null,
            "telefone2": "03 25 41 35 04",
            "latitude": "48.02513400000000000000",
            "longitude": "4.04715000000000000000",
            "departamento": "10",
            "pertence_nfi": "não",
            "id_utilizador": "2",
            "id_log": "0"
        },
        {
            "id_cliente": "2750",
            "nome": "Marc Bulidon",
            "morada": "6 rue Chanterie 10340 Channes",
            "telefone": null,
            "telefone2": "03 25 29 11 22",
            "latitude": "47.93975190000000000000",
            "longitude": "4.25065740000000000000",
            "departamento": "10",
            "pertence_nfi": "não",
            "id_utilizador": "2",
            "id_log": "0"
        },
        {
            "id_cliente": "2751",
            "nome": "Menuiserie Desavie",
            "morada": "616 route Maizières 10600 Savières",
            "telefone": null,
            "telefone2": "06 12 06 61 76",
            "latitude": "48.41216520000000000000",
            "longitude": "3.94754619999999970000",
            "departamento": "10",
            "pertence_nfi": "não",
            "id_utilizador": "2",
            "id_log": "0"
        },
        {
            "id_cliente": "2752",
            "nome": "DE NORBERT",
            "morada": "16 Bis rue Jean Baptiste Colbert 10600 La Chapelle Saint Luc",
            "telefone": null,
            "telefone2": "06 72 37 42 40",
            "latitude": "48.31184969999999600000",
            "longitude": "4.02408620000000000000",
            "departamento": "10",
            "pertence_nfi": "não",
            "id_utilizador": "2",
            "id_log": "0"
        },
        {
            "id_cliente": "2753",
            "nome": "RSM EURL",
            "morada": "1 rue Haute Borde 10400 Traînel",
            "telefone": null,
            "telefone2": "07 71 12 32 55",
            "latitude": "48.41207600000000000000",
            "longitude": "3.43936400000000000000",
            "departamento": "10",
            "pertence_nfi": "não",
            "id_utilizador": "2",
            "id_log": "0"
        },
        {
            "id_cliente": "2754",
            "nome": "Delaporte SARL",
            "morada": "15 Grand Rue, 10410 Ruvigny",
            "telefone": null,
            "telefone2": "06 84 69 35 13",
            "latitude": "48.31780800000000000000",
            "longitude": "3.68124499999999900000",
            "departamento": "10",
            "pertence_nfi": "não",
            "id_utilizador": "2",
            "id_log": "0"
        },
        {
            "id_cliente": "2755",
            "nome": "NG Menuiserie",
            "morada": "18 rue Haute 10410 Thennelières",
            "telefone": null,
            "telefone2": "06 14 28 42 94",
            "latitude": "48.28921260000000000000",
            "longitude": "4.17465339999999950000",
            "departamento": "10",
            "pertence_nfi": "não",
            "id_utilizador": "2",
            "id_log": "0"
        },
        {
            "id_cliente": "2756",
            "nome": "KG2 Menuiserie",
            "morada": "4 hameau Chantemerle 10800 Cormost",
            "telefone": null,
            "telefone2": "06 42 19 81 75",
            "latitude": "48.15734700000000000000",
            "longitude": "4.14721860000000000000",
            "departamento": "10",
            "pertence_nfi": "não",
            "id_utilizador": "2",
            "id_log": "0"
        },
        {
            "id_cliente": "2757",
            "nome": "Burrel Brian",
            "morada": "1 rue Rabelais 10800 Saint Julien les Villas",
            "telefone": null,
            "telefone2": "06 87 39 94 73",
            "latitude": "48.26726619999999500000",
            "longitude": "4.09799490000000000000",
            "departamento": "10",
            "pertence_nfi": "não",
            "id_utilizador": "2",
            "id_log": "0"
        },
        {
            "id_cliente": "2758",
            "nome": "MCT Pro10Pose",
            "morada": "20 rue Paix 10170 Orvilliers Saint Julien",
            "telefone": null,
            "telefone2": "06 83 00 10 62",
            "latitude": "48.44540480000000000000",
            "longitude": "3.82494500000000000000",
            "departamento": "10",
            "pertence_nfi": "não",
            "id_utilizador": "2",
            "id_log": "0"
        },
        {
            "id_cliente": "2759",
            "nome": "MENUISIERS PLAC - DESIGN SARL MENUISIERS PLAC - DESIGN SARL",
            "morada": "30 rue Herbigny 10800 Saint Léger près Troyes",
            "telefone": null,
            "telefone2": "06 83 27 91 32",
            "latitude": "48.23105150000000000000",
            "longitude": "4.08130960000000000000",
            "departamento": "10",
            "pertence_nfi": "não",
            "id_utilizador": "2",
            "id_log": "0"
        },
        {
            "id_cliente": "2760",
            "nome": "Atout Service Aubois EURL",
            "morada": "9 route Champigny 10270 Laubressel",
            "telefone": null,
            "telefone2": "06 62 65 72 28",
            "latitude": "48.30436900000000000000",
            "longitude": "4.23852200000000000000",
            "departamento": "10",
            "pertence_nfi": "não",
            "id_utilizador": "2",
            "id_log": "0"
        },
        {
            "id_cliente": "2761",
            "nome": "Fabrice Di Masso",
            "morada": "6 avenue Verdun 10500 Brienne le Château",
            "telefone": null,
            "telefone2": "03 25 92 18 49",
            "latitude": "48.39264230000000000000",
            "longitude": "4.53357970000000000000",
            "departamento": "10",
            "pertence_nfi": "não",
            "id_utilizador": "2",
            "id_log": "0"
        },
        {
            "id_cliente": "2762",
            "nome": "Michel Avenol",
            "morada": "2 rue Vannage 10200 DOLANCOURT",
            "telefone": null,
            "telefone2": "03 25 27 92 24",
            "latitude": "48.26601900000000000000",
            "longitude": "4.61629099999999950000",
            "departamento": "10",
            "pertence_nfi": "não",
            "id_utilizador": "2",
            "id_log": "0"
        },
        {
            "id_cliente": "2763",
            "nome": "Bati Fermetures Sécurité",
            "morada": "2 route Ville Sur Terre 10200 Soulaines Dhuys",
            "telefone": null,
            "telefone2": "03 25 92 42 27",
            "latitude": "48.37172200000000000000",
            "longitude": "4.73363250000000000000",
            "departamento": "10",
            "pertence_nfi": "não",
            "id_utilizador": "2",
            "id_log": "0"
        },
        {
            "id_cliente": "2764",
            "nome": "Alain Woronovycz",
            "morada": "17 rue Henry Regnault 10800 Saint Julien les Villas",
            "telefone": null,
            "telefone2": "03 25 40 31 67",
            "latitude": "48.26846250000000500000",
            "longitude": "4.10092090000000000000",
            "departamento": "10",
            "pertence_nfi": "não",
            "id_utilizador": "2",
            "id_log": "0"
        },
        {
            "id_cliente": "2765",
            "nome": "Jean Philippe Payen",
            "morada": "8 rue Forge 10100 Saint Martin de Bossenay",
            "telefone": null,
            "telefone2": null,
            "latitude": "48.43580970000000000000",
            "longitude": "3.67431139999999970000",
            "departamento": "10",
            "pertence_nfi": "não",
            "id_utilizador": "2",
            "id_log": "0"
        },
        {
            "id_cliente": "2766",
            "nome": "Urnauer Fermetures",
            "morada": "23 hameau Villevoque 10220 Piney",
            "telefone": null,
            "telefone2": "06 45 93 72 52",
            "latitude": "48.38372900000000000000",
            "longitude": "4.33789700000000000000",
            "departamento": "10",
            "pertence_nfi": "não",
            "id_utilizador": "2",
            "id_log": "0"
        },
        {
            "id_cliente": "2767",
            "nome": "Joël Gawel",
            "morada": "3 rue Philippe Thomassin 10430 Rosières près Troyes",
            "telefone": null,
            "telefone2": "03 25 49 52 81",
            "latitude": "48.25664150000000000000",
            "longitude": "4.05690410000000000000",
            "departamento": "10",
            "pertence_nfi": "não",
            "id_utilizador": "2",
            "id_log": "0"
        },
        {
            "id_cliente": "2768",
            "nome": "PAILLEY",
            "morada": "59 rue Jean Baptiste Colbert 10600 La Chapelle Saint Luc",
            "telefone": null,
            "telefone2": "03 25 73 53 88",
            "latitude": "48.32045370000000000000",
            "longitude": "4.02593870000000000000",
            "departamento": "10",
            "pertence_nfi": "não",
            "id_utilizador": "2",
            "id_log": "0"
        },
        {
            "id_cliente": "2769",
            "nome": "J.L.J. SARL",
            "morada": "30 avenue Gén Leclerc 10200 Bar sur Aube",
            "telefone": null,
            "telefone2": "06 07 02 78 11",
            "latitude": "48.23833090000000000000",
            "longitude": "4.70038229999999900000",
            "departamento": "10",
            "pertence_nfi": "não",
            "id_utilizador": "2",
            "id_log": "0"
        },
        {
            "id_cliente": "2770",
            "nome": "Maia SARL",
            "morada": "4 rue Gibert 10240 Dampierre",
            "telefone": null,
            "telefone2": "03 25 47 06 31",
            "latitude": "48.55068170000000000000",
            "longitude": "4.36771630000000000000",
            "departamento": "10",
            "pertence_nfi": "não",
            "id_utilizador": "2",
            "id_log": "0"
        },
        {
            "id_cliente": "2771",
            "nome": "Christophe Goussin",
            "morada": "11 rue Lucien Payn 10800 Cormost",
            "telefone": null,
            "telefone2": "03 25 40 38 02",
            "latitude": "48.17295900000000000000",
            "longitude": "4.13624899999999900000",
            "departamento": "10",
            "pertence_nfi": "não",
            "id_utilizador": "2",
            "id_log": "0"
        },
        {
            "id_cliente": "2772",
            "nome": "Home Création",
            "morada": "33 avenue Tilleuls 10120 Saint André les Vergers",
            "telefone": null,
            "telefone2": "07 60 65 38 35",
            "latitude": "48.28419290000000000000",
            "longitude": "4.06222450000000000000",
            "departamento": "10",
            "pertence_nfi": "não",
            "id_utilizador": "2",
            "id_log": "0"
        },
        {
            "id_cliente": "2773",
            "nome": "Patrick Juvenelle",
            "morada": "9 route Verrières 10800 Buchères",
            "telefone": null,
            "telefone2": "03 25 41 91 04",
            "latitude": "48.23307219999999500000",
            "longitude": "4.12945870000000000000",
            "departamento": "10",
            "pertence_nfi": "não",
            "id_utilizador": "2",
            "id_log": "0"
        },
        {
            "id_cliente": "2774",
            "nome": "ECO-ENERGIES-89",
            "morada": "Aix en Othe 16 rue Ernest Furgon Aix en Othe 10160 Aix Villemaur Pâlis",
            "telefone": null,
            "telefone2": "03 25 70 18 53",
            "latitude": "48.22433050000000000000",
            "longitude": "3.73064810000000000000",
            "departamento": "10",
            "pertence_nfi": "não",
            "id_utilizador": "2",
            "id_log": "0"
        },
        {
            "id_cliente": "2775",
            "nome": "Vincent Descaves",
            "morada": "Mineroy 30 route Chapelle 10160 Aix Villemaur Pâlis",
            "telefone": null,
            "telefone2": "03 25 73 82 48",
            "latitude": "48.17543099999999600000",
            "longitude": "3.72422499999999970000",
            "departamento": "10",
            "pertence_nfi": "não",
            "id_utilizador": "2",
            "id_log": "0"
        },
        {
            "id_cliente": "2776",
            "nome": "Olivier Bon",
            "morada": "23 rue Calbeaudiere 10210 Etourvy",
            "telefone": null,
            "telefone2": "03 25 80 06 60",
            "latitude": "47.95660690000000000000",
            "longitude": "4.13468280000000000000",
            "departamento": "10",
            "pertence_nfi": "não",
            "id_utilizador": "2",
            "id_log": "0"
        },
        {
            "id_cliente": "2777",
            "nome": "Antoine Costantini",
            "morada": "56 rue Charles Baltet 10120 Saint André les Vergers",
            "telefone": null,
            "telefone2": "06 61 26 53 15",
            "latitude": "48.28099990000000000000",
            "longitude": "4.06161190000000000000",
            "departamento": "10",
            "pertence_nfi": "não",
            "id_utilizador": "2",
            "id_log": "0"
        },
        {
            "id_cliente": "2778",
            "nome": "Marc Joly",
            "morada": "22 rue Vieux Moulin 10500 Brienne la Vieille",
            "telefone": null,
            "telefone2": "03 25 92 06 82",
            "latitude": "48.37457000000000000000",
            "longitude": "4.52561610000000000000",
            "departamento": "10",
            "pertence_nfi": "não",
            "id_utilizador": "2",
            "id_log": "0"
        },