{
    "dados23": [
        {
            "id_cliente": "7908",
            "nome": "Jamex SARL",
            "morada": "2 Bis avenue Pierre Mendès France 23000 Guéret",
            "telefone": "05 55 52 18 71",
            "telefone2": null,
            "latitude": "46.16712220000000000000",
            "longitude": "1.87368740000000000000",
            "departamento": "23",
            "pertence_nfi": "não",
            "id_utilizador": "1",
            "id_log": "0"
        },
        {
            "id_cliente": "7909",
            "nome": "Tryba",
            "morada": "1 avenue République 23300 La Souterraine",
            "telefone": "05 55 63 27 96",
            "telefone2": null,
            "latitude": "46.23855250000000000000",
            "longitude": "1.49168930000000000000",
            "departamento": "23",
            "pertence_nfi": "não",
            "id_utilizador": "1",
            "id_log": "0"
        },
        {
            "id_cliente": "7910",
            "nome": "Naudon Et Mathe Frères SAS",
            "morada": "Zone Industrielle Les Garguettes 31 rue Cros 23000 Guéret",
            "telefone": "05 55 52 34 62",
            "telefone2": null,
            "latitude": "46.19589350000000000000",
            "longitude": "1.88278479999999980000",
            "departamento": "23",
            "pertence_nfi": "não",
            "id_utilizador": "1",
            "id_log": "0"
        },
        {
            "id_cliente": "7911",
            "nome": "Matthieu Braconne",
            "morada": "12 le Bourg, 23210 Azat Châtenet",
            "telefone": "06 34 10 75 06",
            "telefone2": null,
            "latitude": "46.12123570000000000000",
            "longitude": "1.73441880000000000000",
            "departamento": "23",
            "pertence_nfi": "não",
            "id_utilizador": "1",
            "id_log": "0"
        },
        {
            "id_cliente": "7912",
            "nome": "CHASSAIN SARL",
            "morada": "3 lieu-dit Lascaux 23320 Saint Vaury",
            "telefone": "05 55 66 26 15",
            "telefone2": null,
            "latitude": "46.18889000000000000000",
            "longitude": "1.75534299999999990000",
            "departamento": "23",
            "pertence_nfi": "não",
            "id_utilizador": "1",
            "id_log": "0"
        },
        {
            "id_cliente": "7913",
            "nome": "ISO Reno",
            "morada": "2 Bis rue Hector Berlioz 23000 Guéret",
            "telefone": "06 84 81 96 74",
            "telefone2": null,
            "latitude": "46.17042310000000000000",
            "longitude": "1.88149420000000000000",
            "departamento": "23",
            "pertence_nfi": "não",
            "id_utilizador": "1",
            "id_log": "0"
        },
        {
            "id_cliente": "7914",
            "nome": "Naudon Mathé Frères SAS",
            "morada": "zone industrielle Cheix 23300 La Souterraine",
            "telefone": "05 55 63 09 49",
            "telefone2": null,
            "latitude": "46.24767000000000000000",
            "longitude": "1.50023700000000000000",
            "departamento": "23",
            "pertence_nfi": "não",
            "id_utilizador": "1",
            "id_log": "0"
        },
        {
            "id_cliente": "7915",
            "nome": "Entreprise Chassain SARL",
            "morada": "Lieu Dit Les Redondets rue St Jean 23200 Aubusson",
            "telefone": "05 55 66 26 15",
            "telefone2": null,
            "latitude": "45.94997400000000000000",
            "longitude": "2.16843060000000000000",
            "departamento": "23",
            "pertence_nfi": "não",
            "id_utilizador": "1",
            "id_log": "0"
        },
        {
            "id_cliente": "7916",
            "nome": "Eco'Logis Experts",
            "morada": "6 avenue Europe 23000 Guéret",
            "telefone": "05 55 52 23 23",
            "telefone2": null,
            "latitude": "46.18095210000000000000",
            "longitude": "1.87681670000000000000",
            "departamento": "23",
            "pertence_nfi": "não",
            "id_utilizador": "1",
            "id_log": "0"
        },
        {
            "id_cliente": "7917",
            "nome": "Joyeux Serge SARL",
            "morada": "route Guéret 23320 Saint Vaury",
            "telefone": "06 98 47 56 72",
            "telefone2": null,
            "latitude": "46.20432100000000000000",
            "longitude": "1.76374800000000000000",
            "departamento": "23",
            "pertence_nfi": "não",
            "id_utilizador": "1",
            "id_log": "0"
        },
        {
            "id_cliente": "7918",
            "nome": "Creuse Fermetures",
            "morada": "22 rue Cros 23000 Guéret",
            "telefone": "05 55 41 76 74",
            "telefone2": null,
            "latitude": "46.19396099999999400000",
            "longitude": "1.87848099999999980000",
            "departamento": "23",
            "pertence_nfi": "não",
            "id_utilizador": "1",
            "id_log": "0"
        },
        {
            "id_cliente": "7919",
            "nome": "Rénov Iso Conseil",
            "morada": "23 rue Louis François 23300 La Souterraine",
            "telefone": "05 55 63 43 15",
            "telefone2": null,
            "latitude": "46.23254480000000000000",
            "longitude": "1.50410710000000000000",
            "departamento": "23",
            "pertence_nfi": "não",
            "id_utilizador": "1",
            "id_log": "0"
        },
        {
            "id_cliente": "7920",
            "nome": "Ioner France",
            "morada": "6 rue Eric Tabarly 23000 Guéret",
            "telefone": "05 55 61 16 68",
            "telefone2": null,
            "latitude": "46.18221399999999500000",
            "longitude": "1.88503300000000020000",
            "departamento": "23",
            "pertence_nfi": "não",
            "id_utilizador": "1",
            "id_log": "0"
        },
        {
            "id_cliente": "7921",
            "nome": "Peschot",
            "morada": "Route De Montluçon 24 le Verger, 23000 Sainte Feyre",
            "telefone": "05 55 52 76 97",
            "telefone2": null,
            "latitude": "46.17524909999999500000",
            "longitude": "1.89242049999999960000",
            "departamento": "23",
            "pertence_nfi": "não",
            "id_utilizador": "1",
            "id_log": "0"
        },
        {
            "id_cliente": "7922",
            "nome": "Moreau Et Fils SARL",
            "morada": "3 le Mont, 23210 Marsac",
            "telefone": "05 55 62 60 79",
            "telefone2": null,
            "latitude": "46.11220000000000000000",
            "longitude": "1.57484640000000000000",
            "departamento": "23",
            "pertence_nfi": "não",
            "id_utilizador": "1",
            "id_log": "0"
        },
        {
            "id_cliente": "7923",
            "nome": "Espace Bois Et Nuances",
            "morada": "27 avenue Gambetta 23000 Guéret",
            "telefone": "05 55 80 09 51",
            "telefone2": null,
            "latitude": "46.17156370000000000000",
            "longitude": "1.87686220000000010000",
            "departamento": "23",
            "pertence_nfi": "não",
            "id_utilizador": "1",
            "id_log": "0"
        },
        {
            "id_cliente": "7924",
            "nome": "AUDEBERT JEAN MICHEL",
            "morada": "11 Villecorbeix, 23000 Sainte Feyre",
            "telefone": "05 55 41 76 84",
            "telefone2": null,
            "latitude": "46.18205260000000000000",
            "longitude": "1.93528190000000000000",
            "departamento": "23",
            "pertence_nfi": "não",
            "id_utilizador": "1",
            "id_log": "0"
        },
        {
            "id_cliente": "7925",
            "nome": "Toiture Charpente et Services",
            "morada": "11 rue Pont de la Gartempe 23240 Le Grand Bourg",
            "telefone": null,
            "telefone2": "05 55 80 43 90",
            "latitude": "46.16419440000000000000",
            "longitude": "1.64276020000000010000",
            "departamento": "23",
            "pertence_nfi": "não",
            "id_utilizador": "1",
            "id_log": "0"
        },
        {
            "id_cliente": "7926",
            "nome": "Naucodie SARL",
            "morada": "5 route Vallière 23460 Le Monteil au Vicomte",
            "telefone": "05 55 64 95 03",
            "telefone2": null,
            "latitude": "45.93183480000000400000",
            "longitude": "1.93920649999999980000",
            "departamento": "23",
            "pertence_nfi": "não",
            "id_utilizador": "1",
            "id_log": "0"
        },
        {
            "id_cliente": "7927",
            "nome": "Creuse Agencement",
            "morada": "31 rue Cros 23000 Guéret",
            "telefone": "05 55 52 08 33",
            "telefone2": null,
            "latitude": "46.19589350000000000000",
            "longitude": "1.88278479999999980000",
            "departamento": "23",
            "pertence_nfi": "não",
            "id_utilizador": "1",
            "id_log": "0"
        },
        {
            "id_cliente": "7928",
            "nome": "Menuiserie Chagnon",
            "morada": "impasse Troènes 23600 Boussac",
            "telefone": "05 55 65 16 00",
            "telefone2": null,
            "latitude": "46.35237990000000000000",
            "longitude": "2.21769300000000000000",
            "departamento": "23",
            "pertence_nfi": "não",
            "id_utilizador": "1",
            "id_log": "0"
        },
        {
            "id_cliente": "7929",
            "nome": "Laurent Fayette Menuiseries",
            "morada": "Za 31 la Grange Bonnyaud, 23400 Bourganeuf",
            "telefone": "05 55 64 03 29",
            "telefone2": null,
            "latitude": "45.96039950000000000000",
            "longitude": "1.75748120000000000000",
            "departamento": "23",
            "pertence_nfi": "não",
            "id_utilizador": "1",
            "id_log": "0"
        },
        {
            "id_cliente": "7930",
            "nome": "Gansoinat EURL",
            "morada": "3 route Aubusson 23130 Chénérailles",
            "telefone": "05 55 62 33 43",
            "telefone2": null,
            "latitude": "46.10976520000000000000",
            "longitude": "2.17827250000000030000",
            "departamento": "23",
            "pertence_nfi": "não",
            "id_utilizador": "1",
            "id_log": "0"
        },
        {
            "id_cliente": "7931",
            "nome": "Aluminium Nuno",
            "morada": "53 avenue Louis Laroche 23000 Guéret",
            "telefone": "06 78 15 44 23",
            "telefone2": null,
            "latitude": "46.17740440000000000000",
            "longitude": "1.87035319999999980000",
            "departamento": "23",
            "pertence_nfi": "não",
            "id_utilizador": "1",
            "id_log": "0"
        },
        {
            "id_cliente": "7932",
            "nome": "Remi Bouty E.I",
            "morada": "lieu-dit Nernuit 23300 Saint Priest la Feuille",
            "telefone": "06 67 20 81 10",
            "telefone2": null,
            "latitude": "46.20250600000000000000",
            "longitude": "1.51741800000000000000",
            "departamento": "23",
            "pertence_nfi": "não",
            "id_utilizador": "1",
            "id_log": "0"
        },
        {
            "id_cliente": "7933",
            "nome": "Home Énergie Solutions",
            "morada": "1 Grande Rue, 23000 Guéret",
            "telefone": null,
            "telefone2": "05 44 30 80 91",
            "latitude": "46.16912910000000000000",
            "longitude": "1.86923600000000010000",
            "departamento": "23",
            "pertence_nfi": "não",
            "id_utilizador": "1",
            "id_log": "0"
        },
        {
            "id_cliente": "7934",
            "nome": "Adam SAS",
            "morada": "18 route La Souterraine 23300 Saint Agnant de Versillat",
            "telefone": null,
            "telefone2": "05 55 63 11 08",
            "latitude": "46.27692880000000000000",
            "longitude": "1.50616540000000000000",
            "departamento": "23",
            "pertence_nfi": "não",
            "id_utilizador": "1",
            "id_log": "0"
        },
        {
            "id_cliente": "7935",
            "nome": "Geaix Frères",
            "morada": "5 la Croix Rouge, 23700 Les Mars",
            "telefone": "05 55 67 05 73",
            "telefone2": null,
            "latitude": "45.98017559999999500000",
            "longitude": "2.47134950000000000000",
            "departamento": "23",
            "pertence_nfi": "não",
            "id_utilizador": "1",
            "id_log": "0"
        },
        {
            "id_cliente": "7936",
            "nome": "Menuiserie ROBIN",
            "morada": "route Guéret 23380 Ajain",
            "telefone": "06 87 54 33 73",
            "telefone2": null,
            "latitude": "46.20661400000000000000",
            "longitude": "1.99409800000000000000",
            "departamento": "23",
            "pertence_nfi": "não",
            "id_utilizador": "1",
            "id_log": "0"
        },
        {
            "id_cliente": "7937",
            "nome": "Tissier Père Et Fils",
            "morada": "2 la Forest, 23300 Noth",
            "telefone": null,
            "telefone2": "05 55 63 37 24",
            "latitude": "46.26332430000000000000",
            "longitude": "1.56073730000000000000",
            "departamento": "23",
            "pertence_nfi": "não",
            "id_utilizador": "1",
            "id_log": "0"
        },
        {
            "id_cliente": "7938",
            "nome": "Laurent Fayette Menuiseries",
            "morada": "1 place Courtaud 23500 Felletin",
            "telefone": "05 55 64 03 29",
            "telefone2": null,
            "latitude": "45.88375800000000000000",
            "longitude": "2.17313870000000000000",
            "departamento": "23",
            "pertence_nfi": "não",
            "id_utilizador": "1",
            "id_log": "0"
        },
        {
            "id_cliente": "7939",
            "nome": "Menuiserie Bastier",
            "morada": "2 Viergne Gomet, 23170 Lussat",
            "telefone": "05 55 82 17 76",
            "telefone2": null,
            "latitude": "46.16553820000000000000",
            "longitude": "2.34511399999999970000",
            "departamento": "23",
            "pertence_nfi": "não",
            "id_utilizador": "1",
            "id_log": "0"
        },
        {
            "id_cliente": "7940",
            "nome": "Sarl Gregoire Et Breuil",
            "morada": "le Bourg, 23500 Clairavaux",
            "telefone": "05 55 66 90 63",
            "telefone2": null,
            "latitude": "45.78322900000000000000",
            "longitude": "2.16659200000000000000",
            "departamento": "23",
            "pertence_nfi": "não",
            "id_utilizador": "1",
            "id_log": "0"
        },
        {
            "id_cliente": "7941",
            "nome": "Jean-Michel Jouhannet",
            "morada": "Rte Aigurande 45 lieu-dit Chambourtrette 23800 Villard",
            "telefone": "05 55 63 03 22",
            "telefone2": null,
            "latitude": "46.30666000000000000000",
            "longitude": "1.68675699999999980000",
            "departamento": "23",
            "pertence_nfi": "não",
            "id_utilizador": "1",
            "id_log": "0"
        },
        {
            "id_cliente": "7942",
            "nome": "BM RENOV Michel BERNARD",
            "morada": "Enseigne Turbo Fonte 2 lieu-dit Bussière 23450 Fresselines",
            "telefone": "05 55 89 73 32",
            "telefone2": null,
            "latitude": "46.35166710000000000000",
            "longitude": "1.73723430000000000000",
            "departamento": "23",
            "pertence_nfi": "não",
            "id_utilizador": "1",
            "id_log": "0"
        },
        {
            "id_cliente": "7943",
            "nome": "Ludovic Accolas",
            "morada": "Charsat 34 rue Champ de Course 23000 Sainte Feyre",
            "telefone": "05 55 81 10 68",
            "telefone2": null,
            "latitude": "46.13952099999999500000",
            "longitude": "1.91504000000000000000",
            "departamento": "23",
            "pertence_nfi": "não",
            "id_utilizador": "1",
            "id_log": "0"
        },
        {
            "id_cliente": "7944",
            "nome": "L'Atelier Du Combadeau",
            "morada": "Les Combadeaux route Chambon 23200 Aubusson",
            "telefone": "05 55 66 17 64",
            "telefone2": null,
            "latitude": "45.96689600000000000000",
            "longitude": "2.18577600000000000000",
            "departamento": "23",
            "pertence_nfi": "não",
            "id_utilizador": "1",
            "id_log": "0"
        },
        {
            "id_cliente": "7945",
            "nome": "Jean-Michel Domy",
            "morada": "9 la Grange Bonnyaud, 23400 Bourganeuf",
            "telefone": "05 55 64 06 58",
            "telefone2": null,
            "latitude": "45.95894000000000000000",
            "longitude": "1.75610300000000020000",
            "departamento": "23",
            "pertence_nfi": "não",
            "id_utilizador": "1",
            "id_log": "0"
        },
        {
            "id_cliente": "7946",
            "nome": "Arnaud Pasty",
            "morada": "3 rue Paul Madeline 23000 Guéret",
            "telefone": "05 55 51 19 54",
            "telefone2": null,
            "latitude": "46.18054720000000000000",
            "longitude": "1.85901140000000020000",
            "departamento": "23",
            "pertence_nfi": "não",
            "id_utilizador": "1",
            "id_log": "0"
        },
        {
            "id_cliente": "7947",
            "nome": "ADAM SAS",
            "morada": "4 rue Maurice Rollinat 23000 Guéret",
            "telefone": null,
            "telefone2": "05 55 51 08 47",
            "latitude": "46.17215290000000000000",
            "longitude": "1.86937449999999970000",
            "departamento": "23",
            "pertence_nfi": "não",
            "id_utilizador": "1",
            "id_log": "0"
        },
        {
            "id_cliente": "7948",
            "nome": "Naudon Et Mathe Frères",
            "morada": "le Bourg, 23300 Noth",
            "telefone": null,
            "telefone2": "05 55 63 74 31",
            "latitude": "46.23413180000000000000",
            "longitude": "1.58562280000000000000",
            "departamento": "23",
            "pertence_nfi": "não",
            "id_utilizador": "1",
            "id_log": "0"
        },
        {
            "id_cliente": "7949",
            "nome": "Serru'Bat",
            "morada": "6 rue Cros 23000 Guéret",
            "telefone": null,
            "telefone2": "05 55 41 17 20",
            "latitude": "46.19300780000000000000",
            "longitude": "1.87473180000000000000",
            "departamento": "23",
            "pertence_nfi": "não",
            "id_utilizador": "1",
            "id_log": "0"
        },
        {
            "id_cliente": "7950",
            "nome": "Cottaz",
            "morada": "7 rue Principale 23210 Aulon",
            "telefone": null,
            "telefone2": "05 55 62 04 99",
            "latitude": "46.08367889999999500000",
            "longitude": "1.68683900000000000000",
            "departamento": "23",
            "pertence_nfi": "não",
            "id_utilizador": "1",
            "id_log": "0"
        },
        {
            "id_cliente": "7951",
            "nome": "Claude Maudeux",
            "morada": "1 rue Ancienne Cure 23130 Chénérailles",
            "telefone": "05 56 62 91 14",
            "telefone2": null,
            "latitude": "46.11409200000000000000",
            "longitude": "2.17488799999999970000",
            "departamento": "23",
            "pertence_nfi": "não",
            "id_utilizador": "1",
            "id_log": "0"
        },
        {
            "id_cliente": "7952",
            "nome": "La Maison Fauconnet",
            "morada": "ZA 28 la Sciauve, 23230 Gouzon",
            "telefone": null,
            "telefone2": "05 55 81 00 00",
            "latitude": "46.19397980000000000000",
            "longitude": "2.22773420000000000000",
            "departamento": "23",
            "pertence_nfi": "não",
            "id_utilizador": "1",
            "id_log": "0"
        },
        {
            "id_cliente": "7953",
            "nome": "Stephane EIRL Veillon",
            "morada": "39 rue Moulin du Champ 23000 Saint Sulpice le Guérétois",
            "telefone": "06 31 38 93 37",
            "telefone2": null,
            "latitude": "46.20069559999999600000",
            "longitude": "1.82062109999999990000",
            "departamento": "23",
            "pertence_nfi": "não",
            "id_utilizador": "1",
            "id_log": "0"
        },
        {
            "id_cliente": "7954",
            "nome": "Entreprise Grizon SARL",
            "morada": "Lestrade, 23430 Saint Pierre Chérignat",
            "telefone": "05 55 64 31 06",
            "telefone2": null,
            "latitude": "45.97433300000001000000",
            "longitude": "1.60681200000000000000",
            "departamento": "23",
            "pertence_nfi": "não",
            "id_utilizador": "1",
            "id_log": "0"
        },
        {
            "id_cliente": "7955",
            "nome": "Henri Fonteix",
            "morada": "10 route Montluçon 23700 Rougnat",
            "telefone": null,
            "telefone2": "05 55 67 01 56",
            "latitude": "46.02809339999999600000",
            "longitude": "2.50075399999999970000",
            "departamento": "23",
            "pertence_nfi": "não",
            "id_utilizador": "1",
            "id_log": "0"
        },
        {
            "id_cliente": "7956",
            "nome": "Jean-François Crouzillat",
            "morada": "16 Cher de Haut, 23000 Saint Fiel",
            "telefone": null,
            "telefone2": "05 55 52 48 56",
            "latitude": "46.19204800000000000000",
            "longitude": "1.90211500000000020000",
            "departamento": "23",
            "pertence_nfi": "não",
            "id_utilizador": "1",
            "id_log": "0"
        },
        {
            "id_cliente": "7957",
            "nome": "Jean Louis Et Arnaud Gillet",
            "morada": "lieu-dit Mandement 23800 Naillat",
            "telefone": null,
            "telefone2": "05 55 89 23 76",
            "latitude": "46.27014200000000000000",
            "longitude": "1.69335500000000000000",
            "departamento": "23",
            "pertence_nfi": "não",
            "id_utilizador": "1",
            "id_log": "0"
        },
        {
            "id_cliente": "7958",
            "nome": "Pascal Teillard",
            "morada": "lieu-dit Pleine Faye 23480 Le Donzeil",
            "telefone": "05 55 64 55 51",
            "telefone2": null,
            "latitude": "46.04351899999999600000",
            "longitude": "2.00619390000000000000",
            "departamento": "23",
            "pertence_nfi": "não",
            "id_utilizador": "1",
            "id_log": "0"
        },
        {
            "id_cliente": "7959",
            "nome": "Jean Leclercq",
            "morada": "22 Villevaleix, 23220 Jouillat",
            "telefone": "06 58 50 83 01",
            "telefone2": null,
            "latitude": "46.26090900000000000000",
            "longitude": "1.93323299999999980000",
            "departamento": "23",
            "pertence_nfi": "não",
            "id_utilizador": "1",
            "id_log": "0"
        },
        {
            "id_cliente": "7960",
            "nome": "Roussy Avignon",
            "morada": "41 Rameix, 23380 Ajain",
            "telefone": "05 55 80 97 54",
            "telefone2": null,
            "latitude": "46.21567789999999600000",
            "longitude": "2.04985700000000000000",
            "departamento": "23",
            "pertence_nfi": "não",
            "id_utilizador": "1",
            "id_log": "0"
        },
        {
            "id_cliente": "7961",
            "nome": "Rénov Iso Conseil SARL",
            "morada": "Za La Prade 23 rue Louis François 23300 La Souterraine",
            "telefone": null,
            "telefone2": "05 55 63 43 15",
            "latitude": "46.23254480000000000000",
            "longitude": "1.50410710000000000000",
            "departamento": "23",
            "pertence_nfi": "não",
            "id_utilizador": "1",
            "id_log": "0"
        },
        {
            "id_cliente": "7962",
            "nome": "Nathalie Mouly",
            "morada": "2 le Bourg, 23100 Féniers",
            "telefone": null,
            "telefone2": "05 55 66 91 95",
            "latitude": "45.69799839999999600000",
            "longitude": "2.13073750000000000000",
            "departamento": "23",
            "pertence_nfi": "não",
            "id_utilizador": "1",
            "id_log": "0"
        },
        {
            "id_cliente": "7963",
            "nome": "Bridier Fabrice",
            "morada": "15 Puyduris, 23800 La Celle Dunoise",
            "telefone": "05 55 89 23 46",
            "telefone2": null,
            "latitude": "46.33435100000000000000",
            "longitude": "1.75270200000000000000",
            "departamento": "23",
            "pertence_nfi": "não",
            "id_utilizador": "1",
            "id_log": "0"
        },
        {
            "id_cliente": "7964",
            "nome": "Bonnaret Thierry",
            "morada": "Ferrand 22 route Clermont 23700 Dontreix",
            "telefone": null,
            "telefone2": "05 55 83 93 28",
            "latitude": "46.02739760000000000000",
            "longitude": "2.50401019999999970000",
            "departamento": "23",
            "pertence_nfi": "não",
            "id_utilizador": "1",
            "id_log": "0"
        },
        {
            "id_cliente": "7965",
            "nome": "RF Menuiserie",
            "morada": "6 lieu-dit Breuil 23300 Saint Agnant de Versillat",
            "telefone": null,
            "telefone2": "06 82 24 44 57",
            "latitude": "46.28257389999999600000",
            "longitude": "1.49949199999999980000",
            "departamento": "23",
            "pertence_nfi": "não",
            "id_utilizador": "1",
            "id_log": "0"
        },
        {
            "id_cliente": "7966",
            "nome": "SIMON THURET MENUISERIE",
            "morada": "Bellevue, 23230 Gouzon",
            "telefone": null,
            "telefone2": "05 44 30 89 10",
            "latitude": "46.19166399999999600000",
            "longitude": "2.23680200000000000000",
            "departamento": "23",
            "pertence_nfi": "não",
            "id_utilizador": "1",
            "id_log": "0"
        },
        {
            "id_cliente": "7967",
            "nome": "TASKER FRERES",
            "morada": "Sebastopol, 23150 Moutier d'Ahun",
            "telefone": null,
            "telefone2": "05 55 62 51 99",
            "latitude": "46.11380399999999500000",
            "longitude": "2.05205600000000000000",
            "departamento": "23",
            "pertence_nfi": "não",
            "id_utilizador": "1",
            "id_log": "0"
        },
        {
            "id_cliente": "7968",
            "nome": "Jean-François Blondin",
            "morada": "24 lieu-dit La Croisière 23300 Saint Maurice la Souterraine",
            "telefone": null,
            "telefone2": "05 55 63 04 32",
            "latitude": "46.20679380000000000000",
            "longitude": "1.38789820000000000000",
            "departamento": "23",
            "pertence_nfi": "não",
            "id_utilizador": "1",
            "id_log": "0"
        },
        {
            "id_cliente": "7969",
            "nome": "MC 2000",
            "morada": "9 route Limoges 23210 Marsac",
            "telefone": null,
            "telefone2": "05 55 81 50 65",
            "latitude": "46.09141800000000000000",
            "longitude": "1.57847760000000000000",
            "departamento": "23",
            "pertence_nfi": "não",
            "id_utilizador": "1",
            "id_log": "0"
        },
        {
            "id_cliente": "7970",
            "nome": "Vallette D Osia Marc",
            "morada": "Vieillafonds, 23200 Saint Alpinien",
            "telefone": null,
            "telefone2": "06 82 27 97 63",
            "latitude": "45.97646700000000000000",
            "longitude": "2.23741600000000000000",
            "departamento": "23",
            "pertence_nfi": "não",
            "id_utilizador": "1",
            "id_log": "0"
        },
        {
            "id_cliente": "7971",
            "nome": "Pascal Moreau",
            "morada": "Les Vergnes, 23220 Bonnat",
            "telefone": null,
            "telefone2": "05 55 62 17 22",
            "latitude": "46.32412020000000000000",
            "longitude": "1.91797170000000000000",
            "departamento": "23",
            "pertence_nfi": "não",
            "id_utilizador": "1",
            "id_log": "0"
        },
        {
            "id_cliente": "7972",
            "nome": "AS Menuiserie",
            "morada": "78 rue Vernet 23000 Guéret",
            "telefone": null,
            "telefone2": "05 55 41 67 09",
            "latitude": "46.19510959999999500000",
            "longitude": "1.88103100000000000000",
            "departamento": "23",
            "pertence_nfi": "não",
            "id_utilizador": "1",
            "id_log": "0"
        },
        {
            "id_cliente": "7973",
            "nome": "LA MENUISE",
            "morada": "12 rue Ouches 23200 Saint Marc à Frongier",
            "telefone": null,
            "telefone2": "06 89 86 93 34",
            "latitude": "45.92075540000000000000",
            "longitude": "2.08613549999999970000",
            "departamento": "23",
            "pertence_nfi": "não",
            "id_utilizador": "1",
            "id_log": "0"
        },
        {
            "id_cliente": "7974",
            "nome": "A . D . B . SARL",
            "morada": "5 route Moulin 23320 Saint Vaury",
            "telefone": null,
            "telefone2": "05 55 80 24 91",
            "latitude": "46.20155290000000000000",
            "longitude": "1.75273679999999990000",
            "departamento": "23",
            "pertence_nfi": "não",
            "id_utilizador": "1",
            "id_log": "0"
        },
        {
            "id_cliente": "7975",
            "nome": "Thibaut Pradillon",
            "morada": "Busserolle, 23130 Saint Dizier la Tour",
            "telefone": null,
            "telefone2": "06 77 28 30 63",
            "latitude": "46.13633000000000000000",
            "longitude": "2.17951800000000000000",
            "departamento": "23",
            "pertence_nfi": "não",
            "id_utilizador": "1",
            "id_log": "0"
        },
        {
            "id_cliente": "7976",
            "nome": "Les Menuiseries Courtat",
            "morada": "la Feuillie, 23200 Saint Amand",
            "telefone": null,
            "telefone2": "05 55 66 30 31",
            "latitude": "45.96405900000000000000",
            "longitude": "2.20189200000000000000",
            "departamento": "23",
            "pertence_nfi": "não",
            "id_utilizador": "1",
            "id_log": "0"
        },
        {
            "id_cliente": "7977",
            "nome": "F.F. MENUISERIE",
            "morada": "9 rue St Jean 23200 Aubusson",
            "telefone": null,
            "telefone2": "06 37 86 24 54",
            "latitude": "45.95388120000000000000",
            "longitude": "2.16957510000000000000",
            "departamento": "23",
            "pertence_nfi": "não",
            "id_utilizador": "1",
            "id_log": "0"
        },
        {
            "id_cliente": "7978",
            "nome": "Pascal Couffy",
            "morada": "bât D lieu-dit Coire 23250 Saint Hilaire le Château",
            "telefone": null,
            "telefone2": "05 55 64 32 56",
            "latitude": "45.99460999999999400000",
            "longitude": "1.85996499999999990000",
            "departamento": "23",
            "pertence_nfi": "não",
            "id_utilizador": "1",
            "id_log": "0"
        },
        {
            "id_cliente": "7979",
            "nome": "Jean-Claude Grospeaud",
            "morada": "le Bourg, 23350 Tercillat",
            "telefone": null,
            "telefone2": "05 55 80 60 07",
            "latitude": "46.43734700000000000000",
            "longitude": "2.07042600000000000000",
            "departamento": "23",
            "pertence_nfi": "não",
            "id_utilizador": "1",
            "id_log": "0"
        },
        {
            "id_cliente": "7980",
            "nome": "Demargne SARL",
            "morada": "32 rue Peuillaut 23400 Saint Dizier Leyrenne",
            "telefone": "05 55 64 41 41",
            "telefone2": null,
            "latitude": "46.02747799999999500000",
            "longitude": "1.71437000000000000000",
            "departamento": "23",
            "pertence_nfi": "não",
            "id_utilizador": "1",
            "id_log": "0"
        },
        {
            "id_cliente": "7981",
            "nome": "Pierre Calomine",
            "morada": "zone industrielle Rigour 23400 Bourganeuf",
            "telefone": null,
            "telefone2": "05 55 64 40 39",
            "latitude": "45.95400000000000000000",
            "longitude": "1.74183100000000000000",
            "departamento": "23",
            "pertence_nfi": "não",
            "id_utilizador": "1",
            "id_log": "0"
        },
        {
            "id_cliente": "7982",
            "nome": "Parnoix Philippe",
            "morada": "la Cartelade, 23220 Linard",
            "telefone": null,
            "telefone2": "05 55 62 18 89",
            "latitude": "46.34980440000000000000",
            "longitude": "1.84394980000000000000",
            "departamento": "23",
            "pertence_nfi": "não",
            "id_utilizador": "1",
            "id_log": "0"
        },
        {
            "id_cliente": "7983",
            "nome": "L'Agencement De Jers",
            "morada": "47 la Vergne, Bis, 23000 Saint Fiel",
            "telefone": null,
            "telefone2": "06 03 88 41 44",
            "latitude": "46.19730450000000000000",
            "longitude": "1.90990979999999990000",
            "departamento": "23",
            "pertence_nfi": "não",
            "id_utilizador": "1",
            "id_log": "0"
        },
        {
            "id_cliente": "7984",
            "nome": "L'Art du Bois",
            "morada": "5 route Moulin 23320 Saint Vaury",
            "telefone": null,
            "telefone2": "05 55 80 24 91",
            "latitude": "46.20155290000000000000",
            "longitude": "1.75273679999999990000",
            "departamento": "23",
            "pertence_nfi": "não",
            "id_utilizador": "1",
            "id_log": "0"
        },
        {
            "id_cliente": "7985",
            "nome": "FC Menuiserie",
            "morada": "10 Glaudeix, 23220 Bonnat",
            "telefone": null,
            "telefone2": "06 07 86 11 62",
            "latitude": "46.32668750000000000000",
            "longitude": "1.94971070000000000000",
            "departamento": "23",
            "pertence_nfi": "não",
            "id_utilizador": "1",
            "id_log": "0"
        },
        {
            "id_cliente": "7986",
            "nome": "Cédric Bannier",
            "morada": "1 route Héros 23270 Bétête",
            "telefone": null,
            "telefone2": "06 66 89 98 53",
            "latitude": "46.35984149999999500000",
            "longitude": "2.08193400000000000000",
            "departamento": "23",
            "pertence_nfi": "não",
            "id_utilizador": "1",
            "id_log": "0"
        },
        {
            "id_cliente": "7987",
            "nome": "Paul Da Silva",
            "morada": "6 Teillet, 23400 Saint Dizier Leyrenne",
            "telefone": "05 55 64 42 97",
            "telefone2": null,
            "latitude": "46.05779440000000000000",
            "longitude": "1.70991720000000000000",
            "departamento": "23",
            "pertence_nfi": "não",
            "id_utilizador": "1",
            "id_log": "0"
        },
        {
            "id_cliente": "7988",
            "nome": "M-v Menuiserie",
            "morada": "Petite Ribière, 23000 Saint Sulpice le Guérétois",
            "telefone": null,
            "telefone2": "06 33 85 09 22",
            "latitude": "46.21059300000000000000",
            "longitude": "1.81169700000000000000",
            "departamento": "23",
            "pertence_nfi": "não",
            "id_utilizador": "1",
            "id_log": "0"
        },
        {
            "id_cliente": "7989",
            "nome": "Georges Lafont",
            "morada": "la Cassière, 23150 Ahun",
            "telefone": "05 55 62 52 17",
            "telefone2": null,
            "latitude": "46.09278899999999600000",
            "longitude": "2.02231900000000000000",
            "departamento": "23",
            "pertence_nfi": "não",
            "id_utilizador": "1",
            "id_log": "0"
        },
        {
            "id_cliente": "7990",
            "nome": "Mr Bourillon Jérémie",
            "morada": "16 la Bouzanne, 23360 Méasnes",
            "telefone": "06 68 12 22 59",
            "telefone2": null,
            "latitude": "46.44379680000000000000",
            "longitude": "1.80209830000000000000",
            "departamento": "23",
            "pertence_nfi": "não",
            "id_utilizador": "1",
            "id_log": "0"
        },
        {
            "id_cliente": "7991",
            "nome": "Aurelien Pignot",
            "morada": "route Rigauderie 23270 Bétête",
            "telefone": null,
            "telefone2": "06 61 22 93 15",
            "latitude": "46.35560900000000000000",
            "longitude": "2.07541200000000000000",
            "departamento": "23",
            "pertence_nfi": "não",
            "id_utilizador": "1",
            "id_log": "0"
        },
        {
            "id_cliente": "7992",
            "nome": "Laurent Fayette Menuiseries",
            "morada": "1 chemin Chatres 23000 Guéret",
            "telefone": null,
            "telefone2": "05 55 64 03 29",
            "latitude": "46.16720809999999600000",
            "longitude": "1.88847229999999990000",
            "departamento": "23",
            "pertence_nfi": "não",
            "id_utilizador": "1",
            "id_log": "0"
        },
        {
            "id_cliente": "7993",
            "nome": "Jacky Vincent",
            "morada": "7 lieu-dit Crechat 23290 Saint Pierre de Fursac",
            "telefone": null,
            "telefone2": "05 55 63 67 55",
            "latitude": "46.14404599999999600000",
            "longitude": "1.47807699999999990000",
            "departamento": "23",
            "pertence_nfi": "não",
            "id_utilizador": "1",
            "id_log": "0"
        },
        {
            "id_cliente": "7994",
            "nome": "Bo-BOIS7",
            "morada": "zone industrielle Cheix 23300 La Souterraine",
            "telefone": null,
            "telefone2": "05 55 89 87 81",
            "latitude": "46.24767000000000000000",
            "longitude": "1.50023700000000000000",
            "departamento": "23",
            "pertence_nfi": "não",
            "id_utilizador": "1",
            "id_log": "0"
        },
        {
            "id_cliente": "7995",
            "nome": "Laurent Boyer",
            "morada": "lieu-dit Granges 23100 Saint Merd la Breuille",
            "telefone": null,
            "telefone2": "05 55 67 86 56",
            "latitude": "45.72587990000000000000",
            "longitude": "2.44193690000000000000",
            "departamento": "23",
            "pertence_nfi": "não",
            "id_utilizador": "1",
            "id_log": "0"
        },
        {
            "id_cliente": "7996",
            "nome": "Pascal Perrin",
            "morada": "75 avenue République 36140 Aigurande",
            "telefone": "02 54 06 40 15",
            "telefone2": null,
            "latitude": "46.44027430000000000000",
            "longitude": "1.82060410000000000000",
            "departamento": "23",
            "pertence_nfi": "não",
            "id_utilizador": "1",
            "id_log": "0"
        },
        {
            "id_cliente": "7997",
            "nome": "Anthony Denis Menuiseries",
            "morada": "1 lotissement Plantier 23400 Faux Mazuras",
            "telefone": null,
            "telefone2": "06 21 30 59 82",
            "latitude": "45.92395899999999600000",
            "longitude": "1.78374500000000000000",
            "departamento": "23",
            "pertence_nfi": "não",
            "id_utilizador": "1",
            "id_log": "0"
        },
        {
            "id_cliente": "7998",
            "nome": "Objectif Confort",
            "morada": "4 lieu-dit Masriche 23250 Sardent",
            "telefone": null,
            "telefone2": "06 62 98 82 99",
            "latitude": "46.03667620000000000000",
            "longitude": "1.85206700000000000000",
            "departamento": "23",
            "pertence_nfi": "não",
            "id_utilizador": "1",
            "id_log": "0"
        },
        {
            "id_cliente": "7999",
            "nome": "Legaye",
            "morada": "4 rue Gare 23220 Mortroux",
            "telefone": null,
            "telefone2": "05 55 80 51 10",
            "latitude": "46.39602340000000000000",
            "longitude": "1.92330300000000020000",
            "departamento": "23",
            "pertence_nfi": "não",
            "id_utilizador": "1",
            "id_log": "0"
        },
        {
            "id_cliente": "8000",
            "nome": "Menuiseries Duprat SARL",
            "morada": "Za Lot 1 Langladure, 23400 Masbaraud Mérignat",
            "telefone": null,
            "telefone2": "06 85 32 67 60",
            "latitude": "45.94489799999999500000",
            "longitude": "1.70395400000000000000",
            "departamento": "23",
            "pertence_nfi": "não",
            "id_utilizador": "1",
            "id_log": "0"
        },
        {
            "id_cliente": "8001",
            "nome": "Rebiere",
            "morada": "9 route Limoges 23210 Marsac",
            "telefone": null,
            "telefone2": "05 55 80 32 95",
            "latitude": "46.09141800000000000000",
            "longitude": "1.57847760000000000000",
            "departamento": "23",
            "pertence_nfi": "não",
            "id_utilizador": "1",
            "id_log": "0"
        },
        {
            "id_cliente": "8002",
            "nome": "Frank Vial",
            "morada": "Les Chaumes, 23110 Saint Julien la Genête",
            "telefone": null,
            "telefone2": "05 55 65 59 26",
            "latitude": "46.16157900000000000000",
            "longitude": "2.47783100000000000000",
            "departamento": "23",
            "pertence_nfi": "não",
            "id_utilizador": "1",
            "id_log": "0"
        },
        {
            "id_cliente": "8003",
            "nome": "Alain Cadillon",
            "morada": "16 route Puychauveau 23000 Sainte Feyre",
            "telefone": null,
            "telefone2": "06 13 13 04 94",
            "latitude": "46.17241300000000600000",
            "longitude": "1.90061300000000000000",
            "departamento": "23",
            "pertence_nfi": "não",
            "id_utilizador": "1",
            "id_log": "0"
        },
        {
            "id_cliente": "8004",
            "nome": "Fabrice Chabreyron",
            "morada": "17 lieu-dit Tancognaguet 23290 Saint Pierre de Fursac",
            "telefone": null,
            "telefone2": "05 55 63 65 11",
            "latitude": "46.17512900000000000000",
            "longitude": "1.48365700000000000000",
            "departamento": "23",
            "pertence_nfi": "não",
            "id_utilizador": "1",
            "id_log": "0"
        },
        {
            "id_cliente": "8005",
            "nome": "Pascal Chambraud",
            "morada": "3 Moulin du Bost de Ville, 23400 Saint Dizier Leyrenne",
            "telefone": null,
            "telefone2": "05 55 54 97 03",
            "latitude": "46.00802250000000000000",
            "longitude": "1.68738700000000000000",
            "departamento": "23",
            "pertence_nfi": "não",
            "id_utilizador": "1",
            "id_log": "0"
        },
        {
            "id_cliente": "8006",
            "nome": "Patrick Wytrwal",
            "morada": "le Nouhaud, 23400 Saint Amand Jartoudeix",
            "telefone": null,
            "telefone2": "05 55 64 61 47",
            "latitude": "45.91869000000000000000",
            "longitude": "1.63586200000000000000",
            "departamento": "23",
            "pertence_nfi": "não",
            "id_utilizador": "1",
            "id_log": "0"
        },
        {
            "id_cliente": "8007",
            "nome": "Steven Bunten",
            "morada": "Vigon, 23400 Saint Junien la Bregère",
            "telefone": null,
            "telefone2": "05 55 64 10 13",
            "latitude": "45.88236100000000000000",
            "longitude": "1.75439299999999990000",
            "departamento": "23",
            "pertence_nfi": "não",
            "id_utilizador": "1",
            "id_log": "0"
        },
        {
            "id_cliente": "8008",
            "nome": "Jean-Marie Aufort",
            "morada": "4 Montplaisir, 23170 Lépaud",
            "telefone": null,
            "telefone2": "05 55 82 17 51",
            "latitude": "46.23843700000000000000",
            "longitude": "2.38758800000000000000",
            "departamento": "23",
            "pertence_nfi": "não",
            "id_utilizador": "1",
            "id_log": "0"
        },
        {
            "id_cliente": "8009",
            "nome": "LE PARTENAIRE DE L ENERGIE",
            "morada": "6 route St Laurent 23380 Ajain",
            "telefone": null,
            "telefone2": "06 29 48 45 08",
            "latitude": "46.20298599999999600000",
            "longitude": "1.99884600000000010000",
            "departamento": "23",
            "pertence_nfi": "não",
            "id_utilizador": "1",
            "id_log": "0"
        },
        {
            "id_cliente": "8010",
            "nome": "Chabroullet Sarl",
            "morada": "3 lieu-dit Jeansannes 23240 Le Grand Bourg",
            "telefone": null,
            "telefone2": null,
            "latitude": "46.12360400000000000000",
            "longitude": "1.59769989999999980000",
            "departamento": "23",
            "pertence_nfi": "não",
            "id_utilizador": "1",
            "id_log": "0"
        },
        {
            "id_cliente": "8011",
            "nome": "Frédéric Labat",
            "morada": "10 rue Nogé 23300 La Souterraine",
            "telefone": null,
            "telefone2": "09 72 87 96 83",
            "latitude": "46.23664610000000000000",
            "longitude": "1.48787230000000000000",
            "departamento": "23",
            "pertence_nfi": "não",
            "id_utilizador": "1",
            "id_log": "0"
        },
        {
            "id_cliente": "8012",
            "nome": "Richard Nicolaud",
            "morada": "13 Teillet, 23400 Saint Dizier Leyrenne",
            "telefone": null,
            "telefone2": "05 55 64 46 60",
            "latitude": "46.05837479999999600000",
            "longitude": "1.70785320000000000000",
            "departamento": "23",
            "pertence_nfi": "não",
            "id_utilizador": "1",
            "id_log": "0"
        },
        {
            "id_cliente": "8013",
            "nome": "BRS SAS",
            "morada": "39 Les Coussieres rue Ecureuils 23000 Saint Sulpice le Guérétois",
            "telefone": null,
            "telefone2": "06 89 08 42 04",
            "latitude": "46.17104800000000000000",
            "longitude": "1.84766509999999970000",
            "departamento": "23",
            "pertence_nfi": "não",
            "id_utilizador": "1",
            "id_log": "0"
        },
        {
            "id_cliente": "8014",
            "nome": "Damien Audoine",
            "morada": "19 rue Berry 23270 Châtelus Malvaleix",
            "telefone": null,
            "telefone2": "07 86 43 22 36",
            "latitude": "46.30452200000000000000",
            "longitude": "2.02451780000000000000",
            "departamento": "23",
            "pertence_nfi": "não",
            "id_utilizador": "1",
            "id_log": "0"
        },
        {
            "id_cliente": "8015",
            "nome": "Mathieu Vieilleribiere",
            "morada": "Petite Ribière, 23000 Saint Sulpice le Guérétois",
            "telefone": null,
            "telefone2": "06 33 85 09 22",
            "latitude": "46.21059300000000000000",
            "longitude": "1.81169700000000000000",
            "departamento": "23",
            "pertence_nfi": "não",
            "id_utilizador": "1",
            "id_log": "0"
        },
        {
            "id_cliente": "8016",
            "nome": "Jean Claude Parelon",
            "morada": "51 rue Beauregard 23000 Guéret",
            "telefone": null,
            "telefone2": "05 55 41 10 78",
            "latitude": "46.17824230000000000000",
            "longitude": "1.86937520000000000000",
            "departamento": "23",
            "pertence_nfi": "não",
            "id_utilizador": "1",
            "id_log": "0"
        },
        {
            "id_cliente": "8017",
            "nome": "Marguinaud Jean Marie",
            "morada": "30 route St Priest 23290 Saint Pierre de Fursac",
            "telefone": null,
            "telefone2": "05 55 63 67 94",
            "latitude": "46.15050840000000000000",
            "longitude": "1.51396560000000000000",
            "departamento": "23",
            "pertence_nfi": "não",
            "id_utilizador": "1",
            "id_log": "0"
        },
        {
            "id_cliente": "8018",
            "nome": "Christophe Besse",
            "morada": "Besseresse, 23100 La Courtine",
            "telefone": null,
            "telefone2": "05 55 66 84 73",
            "latitude": "45.69952000000000000000",
            "longitude": "2.26317200000000000000",
            "departamento": "23",
            "pertence_nfi": "não",
            "id_utilizador": "1",
            "id_log": "0"
        }
    ]
}